[
  {
    "name": "Refuge Jeandel",
    "category": "refuge",
    "alt": 1670,
    "phone": "05 59 66 14 46",
    "description": "Le refuge est ouvert de fin mai à mi-octobre, mais cela peut varier en fonction de l'enneigement. Durant cette période, le gardien vous accueille après une journée de randonnée, vous préparera un bon repas chaud et convivial le soir ainsi que le petit-déjeuner (demi-pension). Il y a également un espace pour les campeurs. Nous proposons aussi des piques-niques à emporter et du snack à toutes heures et disposons d'une petite alimentation afin de ravitailler les randonneurs. Modes de paiement : chèques/espèces uniquement.",
    "url": "refugejeandel.com",
    "lat": 42.97813,
    "lng": -0.749795,
    "photoUrl": "https://github.com/matvdg/Rando/blob/master/photos/jeandel.jpeg?raw=true",

  },
  {
    "name": "Refuge d'Ayous",
    "category": "refuge",
    "alt": 1954,
    "phone": "05 59 05 37 00",
    "description": "Attachés à valoriser les circuits courts, la plupart de nos produits sont BIO, issus de la vallée ou de la région. Nous aimons vous faire profiter des saveurs locales et de nos spécialités.",
    "url": "refuge-ayous.fr",
    "lat": 42.8485,
    "lng": -0.49139
  },
  {
    "name": "Refuge des Oulettes de Gaube",
    "category": "refuge",
    "alt": 2652,
    "phone": "09 74 77 66 52",
    "description": "Le refuge des Oulettes idéalement situé au fond de la vallée de Gaude au pied de la face nord du Vignemale se révèle être un camp de base pour les pratiques de montagne. Modes de paiement: CB, chèques et espèces acceptés.",
    "url": "refugeoulettesdegaube.ffcam.fr",
    "lat": 42.779177,
    "lng": -0.124149
  },
  {
    "name": "Refuge de Bayssellance",
    "category": "refuge",
    "alt": 1954,
    "phone": "05 59 05 37 00",
    "description": "Situé sur le massif du Vignemale, avec une vue imprenable sur le cirque de Gavarnie, le refuge de Bayssellance est le plus haut gardé des Pyrénées.  Modes de paiement : chèques/espèces uniquement.",
    "url": "refugebayssellance.ffcam.fr",
    "lat": 42.8485,
    "lng": -0.49139
  },
  {
    "name": "Refuge de l'Oule",
    "category": "refuge",
    "alt": 1818,
    "phone": "05 62 98 48 62",
    "description": "L'auberge est située à 1.820 mètres d'altitude sur les bords du lac de l'Oule aux portes de la réserve naturelle du Néouvielle, et à l'extrême ouest de la station de ski de Saint-Lary-Soulan.",
    "url": "saintlary-vacances.com",
    "lat": 42.824117,
    "lng": 0.207312
  },
  {
    "name": "Refuge du Lac d'Oô",
    "category": "refuge",
    "alt": 1531,
    "phone": "05 61 79 12 29",
    "description": "Refuge Auberge de Montagne (1507 m) 25 couchage, bar et restauration vue sur le Lac d'Oô",
    "url": "lacdoo.cla.fr",
    "lat": 42.744684,
    "lng": 0.490771
  },
  {
    "name": "Refuge d'Espingo",
    "category": "refuge",
    "alt": 1967,
    "phone": "05 61 79 20 01",
    "description": "Le refuge d'Espingo est de par sa situation, un refuge idéal pour la découverte du milieu montagnard. Bordé par les lacs d'Espingo et de Saoussat, il est le théâtre de beaucoup d'acteurs alpinistes, pêcheurs, randonneurs et amis de la nature. Mode de paiement : chèques/espèces uniquement.",
    "url": "refugedespingo.ffcam.fr",
    "lat": 42.73051,
    "lng": 0.499941
  },
  {
    "name": "Refuge Jacques Husson",
    "category": "refuge",
    "alt": 1944,
    "phone": "05 61 96 73 73",
    "description": "Au coeur du PNR des Pyrénées Ariégeoises, le refuge est situé au bord de l'étang d'Araing et au pied du Pic du Crabère, magnifique belvédère sur les plus hauts sommets Pyrénéens. Mode de paiement : chèques/espèces uniquement.",
    "url": "refugeetangdaraing.ffcam.fr",
    "lat": 42.834915,
    "lng": 0.873399
  },
  {
    "name": "Refuge des étangs de Bassies",
    "category": "refuge",
    "alt": 1650,
    "phone": "06 89 40 65 00",
    "description": "C'est au coeur des Pyrénées Ariégeoises, près de l'Andorre, que le pays d'Auzat et du Vicdessos vous accueille, avec ses nombreuses vallées dont celle de Bassiès.",
    "url": "bassies.free.fr",
    "lat": 42.765233,
    "lng": 1.41378
  },
  {
    "name": "Refuge de Rulhe",
    "category": "refuge",
    "alt": 2190,
    "phone": "06 74 24 50 71",
    "description": "Au coeur des estives de la haute vallée de l’Aston, le refuge du Rulhe est le plus accessible des refuges ariégeois. Il se trouve aussi à la croisée des grands chemins de randonnée : le Rando, le GR Transfrontalier, le Tour des montagnes d’Ax et la HRP. Des accès de tout niveau permettent de s’y rendre en quelques heures, à la demi-journée ou à la journée. Vallée d'Aston, près des étangs d'Estagnol, Joclar et Fontargente.  Modes de paiement : chèques/espèces uniquement.",
    "url": "rulhe.com",
    "lat": 42.637848,
    "lng": 1.72575
  },
  {
    "name": "Refuge des Bésines",
    "category": "refuge",
    "alt": 2106,
    "phone": "09 88 77 35 28",
    "description": "Situé au coeur d'un site à la fois minéral et boisé, à la frontière entre l'Ariège et les Pyrénées-Orientales, le refuge des Bésines jouit d'une position particulièrement favorable pour la découverte des hautes terres catalanes et des vallées profondes.  Modes de paiement : chèques/espèces uniquement.",
    "url": "refugedesbesines.ffcam.fr",
    "lat": 42.603872,
    "lng": 1.868194
  },
  {
    "name": "Refuge du Ras de la Carança",
    "category": "refuge",
    "alt": 1836,
    "phone": "07 88 13 86 07",
    "description": "Que vous veniez des gorges, uniques avec leur chemin en balcon taillé dans la roche et leurs passerelles, que vous randonniez sur le Rando vers Mantet ou Planès, ou que le but de votre balade soit les lacs de la Carança ou Nuria, vous y trouverez accueil, gîte et couvert.",
    "url": "refugedelacaranca.com",
    "lat": 42.464254,
    "lng": 2.223462
  },
  {
    "name": "Refuge de Mariailles",
    "category": "refuge",
    "alt": 1686,
    "phone": "04 68 05 57 99",
    "description": "Le refuge de Mariailles, niché au cœur du Massif du Canigou (catalan : Canigó), est un lieu de convivialité et de partage. Au milieu de la nature et des paysages grandioses, vous trouverez le dépaysement, l'isolement, le confort, le repos et le calme. Modes de paiement : chèques/espèces uniquement.",
    "url": "refugedemariailles.fr",
    "lat": 42.501502,
    "lng": 2.407783
  },
  {
    "name": "Refuge des Cortalets",
    "category": "refuge",
    "alt": 2150,
    "phone": "04 68 96 36 19",
    "description": "Étape sur la traversée des Pyrénées, le refuge des Cortalets situé à 2150 m donne accès au sommet du Canigou à 2784 m d'altitude. Modes de paiement: CB, chèques et espèces acceptés.",
    "url": "refugedescortalets.ffcam.fr",
    "lat": 42.534241,
    "lng": 2.464639
  },
  {
    "name": "Cascade de Lutour",
    "category": "waterfall",
    "description": "La cascade de Lutour est une cascade naturelle des Pyrénées située à 1 096 m d'altitude.",
    "alt": 1096,
    "lat": 42.870042,
    "lng": -0.105808
  },
  {
    "name": "Cascade d'Arcouzan",
    "category": "waterfall",
    "description": "La cascade d'Arcouzan est une cascade naturelle des Pyrénées située à 1 065 m d'altitude.",
    "alt": 1065,
    "lat": 42.800592,
    "lng": 1.118023
  },
  {
    "name": "Cascade du Fouillet",
    "category": "waterfall",
    "description": "La cascade du Fouillet est une cascade naturelle des Pyrénées située à 1 321 m d'altitude. Elle est dans le périmètre du parc naturel régional des Pyrénées ariégeoises.",
    "alt": 1321,
    "lat": 42.765317,
    "lng": 1.328549
  },
  {
    "name": "Cascade d'Ars",
    "category": "waterfall",
    "description": "La cascade d'Ars est une cascade naturelle des Pyrénées située dans le Couserans en Ariège, à 1 380 m d'altitude. Elle est dans le périmètre du parc naturel régional des Pyrénées ariégeoises.",
    "alt": 1404,
    "lat": 42.762943,
    "lng": 1.361437
  },
  {
    "name": "Mont Valier",
    "category": "peak",
    "description": "Le mont Valier est un sommet de 2 838 m situé dans les Pyrénées ariégeoises, en Couserans, dominant toute la vallée d’Angouls et son torrent, à faible distance de la frontière espagnole",
    "alt": 2838,
    "lat": 42.799284,
    "lng": 1.085288
  },
  {
    "name": "Pic de Crabère",
    "category": "peak",
    "description": "Le pic de Crabère est un sommet des Pyrénées centrales d'une altitude de 2 630 mètres. Il constitue un tripoint entre les départements français de l'Ariège et de la Haute-Garonne, en région Occitanie, et la province espagnole de Lérida, en Catalogne.",
    "alt": 2630,
    "lat": 42.826527,
    "lng": 0.858709
  },
  {
    "name": "Pic de Montcalm",
    "category": "peak",
    "description": "Le pic du Montcalm est un sommet des Pyrénées françaises culminant à 3 077 mètres et situé sur la commune d'Auzat dans le département de l'Ariège en région Occitanie.",
    "alt": 3077,
    "lat": 42.672928,
    "lng": 1.406448
  },
  {
    "name": "Pic du Canigou",
    "category": "peak",
    "description": "Le pic du Canigou est le haut sommet oriental de la chaîne des Pyrénées, sur le massif du Canigou. Il est situé dans le Conflent, département des Pyrénées-Orientales, et culmine à 2 784 mètres d'altitude.",
    "alt": 2784,
    "lat": 42.520241,
    "lng": 2.456527
  },
  {
    "name": "Pic de Vignemale",
    "category": "peak",
    "description": "Le Vignemale, plus précisément la pique Longue, est un sommet des Pyrénées, situé à la frontière franco-espagnole, dans le massif du Vignemale. Avec ses 3 298 m, c'est le point culminant des Pyrénées françaises, de la région Occitanie et de l'ancienne province de Gascogne.",
    "alt": 3298,
    "lat": 42.774453,
    "lng": -0.146813
  },
  {
    "name": "Refuge d'en Beys",
    "category": "refuge",
    "alt": 1970,
    "phone": "05 61 64 24 24",
    "description": "Le refuge d'en Beys est un refuge de montagne des Pyrénées, situé en Ariège, dans la réserve nationale de faune sauvage d'Orlu sur le bord des étangs d'en Beys, à 1 970 m d'altitude, à la frontière entre Haute-Ariège et Cerdagne. Modes de paiement : chèques/espèces uniquement.",
    "url": "refuge-enbeys.com/fr/",
    "lat": 42.627233,
    "lng": 1.944386
  },
  {
    "name": "Refuge de l'Étang du Pinet",
    "category": "refuge",
    "alt": 2240,
    "phone": "05 61 64 80 81",
    "description": "Le refuge du Pinet est un refuge situé sur la commune d'Auzat, dans les Pyrénées, à 2 240 mètres d'altitude. Il est gardé de début juin à fin septembre. Modes de paiement : chèques/espèces uniquement.",
    "url": "refugeetangpinet.ffcam.fr",
    "lat": 42.691491,
    "lng": 1.396565
  },
  {
    "name": "Refuge les Estagnous",
    "category": "refuge",
    "alt": 2246,
    "phone": "05 61 96 76 22",
    "description": "Le refuge a été construit en 1912 et il est gardé depuis 1976. Il  appartient à la Communauté des Communes Couserans Pyrénées, il est situé sur la commune de Bordes/Uchentein dans la Réserve domaniale du Mont Valier au cœur du Parc Naturel Régional des Pyrénées Ariégeoises. Modes de paiement : chèques/espèces uniquement.",
    "url": "refuge-les-estagnous.com",
    "lat": 42.798014,
    "lng": 1.072662
  },
  {
    "name": "Pic de la Munia",
    "category": "peak",
    "description": "Le pic de la Munia est le point culminant de l'ensemble des trois cirques de Troumouse, Barroude et Barrosa. Situé à la frontière entre la France (département des Hautes-Pyrénées) et l'Espagne (province de Huesca).",
    "alt": 3133,
    "lat": 42.717423,
    "lng": 0.133247
  },
  {
    "name": "Pic d'Estats",
    "category": "peak",
    "description": "La Pique d'Estats (espagnol et catalan : Pica d'Estats) est un sommet des Pyrénées situé sur la frontière franco-espagnole, dans le département de l'Ariège côté français et la comarque catalane de Pallars Sobirà côté espagnol. Avec 3 143 mètres d'altitude, c'est le plus haut sommet du massif du Montcalm, toutefois son ascension ne présente pas de difficulté particulière (ni escalade, ni glacier).",
    "alt": 3143,
    "lat": 42.667471,
    "lng": 1.397905
  },
  {
    "name": "Pic de Verdaguer",
    "category": "peak",
    "description": "Le pic de Verdaguer est un sommet du massif du Montcalm. Il constitue un avant-sommet de la pique d'Estats, point culminant du secteur. De par son statut de sommet secondaire, il peut être enchaîné avec la pique d'Estats, ou bien simplement contourné pour simplifier l'ascension au pic principal.",
    "alt": 3131,
    "lat": 42.66866,
    "lng": 1.397068
  },
  {
    "name": "Pic du Balaïtous",
    "category": "peak",
    "description": "Le pic du Balaïtous (3 144 m) est le premier pic de la chaîne dépassant l'altitude de 3 000 m depuis la côte atlantique. Il est le plus haut sommet du massif du Balaïtous, massif granitique pyrénéen se situant à la frontière entre la France et l'Espagne.",
    "alt": 3144,
    "lat": 42.838957,
    "lng": -0.290169
  },
  {
    "name": "Pic Long",
    "category": "peak",
    "description": "Le pic Long est un sommet des Pyrénées françaises. Avec ses 3 192 mètres, c'est le plus haut sommet du massif du Néouvielle et le troisième plus haut sommet des Pyrénées situé entièrement en France, après la pointe Chausenque et le piton Carré.",
    "alt": 3192,
    "lat": 42.800951,
    "lng": 0.100446
  },
  {
    "name": "Pic Perdiguère",
    "category": "peak",
    "description": "Le pic Perdiguère est le plus haut sommet du massif de Perdiguère de la chaîne des Pyrénées, situé sur la frontière franco-espagnole. Il est le point culminant de la Haute-Garonne.",
    "alt": 3222,
    "lat": 42.692782,
    "lng": 0.518496
  },
  {
    "name": "Pic d'Aneto",
    "category": "peak",
    "description": "Le pic d’Aneto (jusqu'au xixe siècle : Néthou) est le point culminant de la chaîne des Pyrénées avec une altitude de 3 404 m. Il se situe en Espagne, au nord-est de l’Aragon et de la province de Huesca, dans la comarque de Ribagorce. En plein centre du Parc naturel de Posets-Maladeta, il fait partie du massif de la Maladeta dont il constitue la partie sud-est avec le Pic Russell.",
    "alt": 3404,
    "lat": 42.631847,
    "lng": 0.656474
  },
  {
    "name": "Le Mont Perdu",
    "category": "peak",
    "description": "Le mont Perdu (ou Monte Perdido en espagnol), situé en Espagne, proche de la frontière franco-espagnole, est le sommet le plus élevé du massif du Mont-Perdu avec 3 355 m d'altitude, sur la crête séparant les canyons d'Ordesa et de Pineta (ou Pinède). C'est le pic central des Tres Serols (en aragonais) ou Tres Hermanas (en espagnol) constituées par le Cylindre du Marboré, le Soum de Ramond, et le mont Perdu lui-même.",
    "alt": 3355,
    "lat": 42.676098,
    "lng": 0.033845
  },
  {
    "name": "Pic des Posets",
    "category": "peak",
    "description": "Le pic des Posets, ou pointe de Llardana est un sommet des Pyrénées espagnoles qui culmine à 3 375 mètres d'altitude (fréquemment donné aussi à 3 369 sur les cartes espagnoles). Il s'agit du point culminant du massif des Posets, deuxième plus haut massif des Pyrénées, en plein centre du parc naturel de Posets-Maladeta, et également du deuxième plus haut sommet des Pyrénées, après l'Aneto. À ce titre, il est le cinquième plus haut sommet d'Espagne, après le Teide, le Mulhacén, l'Aneto et le Veleta. Il se situe au nord-est de l’Aragon et de la province de Huesca.",
    "alt": 3375,
    "lat": 42.665934,
    "lng": 0.424487
  },
  {
    "name": "Pic des Trois-Seigneurs",
    "category": "peak",
    "description": "Le pic des Trois-Seigneurs est un sommet des Pyrénées françaises dans le département de l'Ariège en région Occitanie. Il culmine à 2 199 m d'altitude.",
    "alt": 2199,
    "lat": 42.831236,
    "lng": 1.440415
  },
  {
    "name": "Pic du Midi de Bigorre",
    "category": "peak",
    "description": "Le pic du Midi de Bigorre est situé dans les Hautes-Pyrénées, et atteint une altitude de 2 876 mètres. Il est connu entre autres pour la présence d'un observatoire astronomique et d'un relais de télévision, installés à son sommet.",
    "alt": 2876,
    "lat": 42.937594,
    "lng": 0.140878
  },
  {
    "name": "Pic Carlit",
    "category": "peak",
    "description": "Le pic Carlit (ou Puig Carlit) est un sommet granitique des Pyrénées françaises situé dans le massif du Carlit. C'est le point culminant du département des Pyrénées-Orientales avec une altitude de 2 921 mètres. Son nom est issu du massif dans lequel il se trouve. Le climat subocéanique froid apporte de nombreuses perturbations (d’ouest à sud-ouest) et un enneigement hivernal durable au-dessus de 2 000 mètres de novembre à avril. Le fleuve Têt prend sa source sur le pic, en faisant la principale réserve d'eau du département des Pyrénées-Orientales. Le classement de la zone sous la protection réseau Natura 2000 en 2015 permet de conserver et de faire croître la richesse faunistique et floristique du site.",
    "alt": 2921,
    "lat": 42.571623,
    "lng": 1.932437
  },
  {
    "name": "Pic d'Ardiden",
    "category": "peak",
    "description": "Le pic d'Ardiden est un sommet des Pyrénées françaises qui culmine à 2 988 m d'altitude. Il domine la station de sports d'hiver de Luz-Ardiden et les lacs d'Ardiden.",
    "alt": 2988,
    "lat": 42.834665,
    "lng": -0.067955
  },
  {
    "name": "Pic de Cagire",
    "category": "peak",
    "description": "Le pic de Cagire est un sommet des Pyrénées françaises, dans la région du Comminges dans la Haute-Garonne. Son altitude est de 1 912 mètres.",
    "alt": 1912,
    "lat": 42.947236,
    "lng": 0.766027
  },
  {
    "name": "Maison d'Arlos",
    "category": "refuge",
    "alt": 522,
    "phone": "07 68 33 33 86",
    "description": "La Maison d'Arlos c'est des chambres et table d'hôtes écoresponsables. Située à proximité du point central du GR10, elle est la parfaite étape quand on vient de Luchon avant d'atteindre le refuge Jacques Husson au pied du Crabère en Ariège, ou vice versa ! À la cascade d'Arlos, suivre le panneau qui indique le chemin qui descend vers le village (15min de marche). Tarif : à partir de 70€/nuit avec petit déjeuner bio, local et gourmand inclus ! La table d'hôtes (menu à 25€, 30€ spécial montagnard affamé), propose des produits locaux, bio comme l'agneau ou le porc noir de la vallée et beaucoup de légumes viennent directement du potager. Pensez à réserver.",
    "url": "maisondarlos.fr",
    "lat": 42.89325,
    "lng": 0.69965
  },
  {
    "name": "Cascade du Gouffre d'Enfer",
    "category": "waterfall",
    "photoUrl": "https://github.com/matvdg/Rando/blob/master/photos/enfer.jpeg?raw=true",
    "description": "Au fond de la vallée du Lys, en amont de Luchon, Grand Site d'Occitanie, la cascade d'Enfer dégringole avec fracas depuis un étroit canyon. C'est le départ de nombreuses randonnées magnifiques (cirque de Crabioules, lac vert, lac bleu, lac Célinda, lac Charles...) voir même pour l'ascencion du grand Maupas.",
    "alt": 1200,
    "lat": 42.73241,
    "lng": 0.55168
  },
  {
    "name": "Cascade d'Arlos (la Batch)",
    "category": "waterfall",
    "description": "A deux pas du GR10, une jolie petite cascade qui marque la fin d'un petit canyoning pour débutants pratiqué l'été.",
    "alt": 600,
    "lat": 42.88211,
    "lng": 0.71033
  },
  {
    "name": "Pic du Gar",
    "category": "peak",
    "description": "Situé près de la commune de Saint-Béat, en Haut-Comminges, le pic du Gar est un sommet connu de la Haute-Garonne, malgré sa faible altitude mais grâce à sa situation avancée par rapport au massif pyrénéen (comme son voisin, le pic de Cagire), dominant la haute vallée de la Garonne au sortir du val d'Aran. Le versant ouest, présentant une pente modérée couverte de pelouse, est situé sur la commune de Moncaup tandis que le versant oriental, plus escarpé, est sur Bezins-Garraux. Son sommet secondaire, le pic Saillant (1 756 m), porte une croix. Ces deux sommets étaient inversés sur les cartes IGN. Cette ambiguïté existe sur les cadastres de Bezins-Garraux (actuel comme sur celui de 1836) où ce sommet est dénommé pic du Gars ou Saillent ou La Pique tandis que le sommet supérieur est simplement nommé pic Saillent.",
    "alt": 1785,
    "lat": 42.94956,
    "lng": 0.69623
  },
  {
    "name": "Pic Saillant",
    "category": "peak",
    "description": "En haut du pic, une croix domine tous les environs des pics pyrénéens. Ce pic, ainsi que le pic du Gar peuvent être vus depuis le canton de Saint-Béat. Le pic Saillant et le pic du Gar sont intervertis sur les cartes IGN. Le pic Saillant constitue un quadripoint reliant les communes de Fronsac, Chaum, Moncaup et Bezins-Garraux. Il surplombe une ligne de falaises calcaires, à la verticalité très prononcée, comportant plusieurs grandes voies équipées pour l'escalade.",
    "alt": 1756,
    "lat": 42.94219,
    "lng": 0.69827
  },
  {
    "lat": 0.97261190414429,
    "lng": 42.99388934681,
    "name": "Refuge de Pradioux",
    "url": "www.pyrenees-refuges.com/fr/affiche.php?numenr=1747",
    "description": "cabane ONF ouverte a tous de passage le 03 02 22 il y avait un poele a bois avec reserve dans refuge et bois tout autour grille pour griller 3 ou 4 assiettes 3 poeles 4 fauteuils en plastique de camping une table qui sert pour monter à l'étage ou il y a trois matelas chacun dans sa housse en plastique l'ensemble est rustique mais propre dehors sur une grande dalle betonnee presence d'une table et ses deux bancs attenants ",
    "photoUrl": "https://www.pyrenees-refuges.com/media/photo/16447762435152.jpg",
    "alt": 1064,
    "category": "sheld"
  },
  {
    "lat": -0.4728,
    "lng": 42.86811,
    "name": "Cabane de Aas",
    "url": "www.pyrenees-refuges.com/fr/affiche.php?numenr=1417",
    "description": "cabane de berger fermée petite partie ouverte pouvant servird'abri en cas d orage ",
    "photoUrl": "https://www.pyrenees-refuges.com/media/photo/1417_1471474579.jpg",
    "alt": 1668,
    "category": "sheld"
  },
  {
    "lat": -0.17042317052629,
    "lng": 42.654572240007,
    "name": "Refugio Planas d'Abozo de Broto",
    "url": "www.pyrenees-refuges.com/fr/affiche.php?numenr=1694",
    "description": "cabane ouverte restaurée en septembre 2018 chambre de 10 places salle a manger eclairage par panneaux solaires et recuperateur d eau de pluie ",
    "photoUrl": "https://www.pyrenees-refuges.com/media/photo/15730735176256.jpg",
    "alt": 1640,
    "category": "sheld"
  },
  {
    "lat": -0.687865,
    "lng": 42.816503,
    "name": "Refugio forestal de Acher",
    "url": "www.pyrenees-refuges.com/fr/affiche.php?numenr=1628",
    "description": "abri 2014 porte en tole endommagee trou dans le toit pres de la cheminee pas de mobilier ",
    "photoUrl": "https://www.pyrenees-refuges.com/media/photo/20221224_867286.jpg",
    "alt": 1742,
    "category": "sheld"
  },
  {
    "lat": -0.72624029486501,
    "lng": 42.884678952629,
    "name": "Caseta Foya Barcal Acherito",
    "url": "www.pyrenees-refuges.com/fr/affiche.php?numenr=1733",
    "description": "cabane restaurée en 2018 deux pièces 2014 une piece fermée et la seconde encombree du materiel de bergers sacs de sel parfois notee archerito ",
    "photoUrl": "https://www.pyrenees-refuges.com/media/photo/20221224_475883.jpg",
    "alt": 1705,
    "category": "sheld"
  },
  {
    "lat": 1.87006179,
    "lng": 42.6748631,
    "name": "Cabane d'Agnelle Morto",
    "url": "www.pyrenees-refuges.com/fr/affiche.php?numenr=4",
    "description": "acces direct par la route très jolie cabane refaite a neuf très propre couchage pour 2 un peu juste pas de matelas petit stock de bois",
    "photoUrl": "https://www.pyrenees-refuges.com/media/photo/4_1225806507.jpg",
    "alt": 1300,
    "category": "sheld"
  },
  {
    "lat": 1.60892844,
    "lng": 42.5110832,
    "name": "Refuge des Agols",
    "url": "www.pyrenees-refuges.com/fr/affiche.php?numenr=5",
    "description": "",
    "photoUrl": "https://www.pyrenees-refuges.com/media/photo/5_1346961539.jpg",
    "alt": 2230,
    "category": "sheld"
  },
  {
    "lat": 1.7561,
    "lng": 42.3197,
    "name": "Barraca de l'Agre",
    "url": "www.pyrenees-refuges.com/fr/affiche.php?numenr=1632",
    "description": "au bout de la piste partant du village de pi au niveau de l aire recreative ensuite la piste n est plus ouverte aux voitures",
    "photoUrl": "https://www.pyrenees-refuges.com/media/photo/2000_1554100974.jpg",
    "alt": 1330,
    "category": "sheld"
  },
  {
    "lat": -0.628637,
    "lng": 42.830664,
    "name": "Cabana de Aguas Tuertas",
    "url": "www.pyrenees-refuges.com/fr/affiche.php?numenr=1623",
    "description": "cabane ouverte juillet 2018 utilisee par les bergers ou les randonneurs eau à proximité a purifier cheminee mais pas de bois à proximité pas de mobilier comme partout ailleurs respectez les lieux et descendez vos dechets merci ",
    "photoUrl": "https://www.pyrenees-refuges.com/media/photo/2001_1553593472.jpg",
    "alt": 1615,
    "category": "sheld"
  },
  {
    "lat": 0.09803984,
    "lng": 42.7591235,
    "name": "Cabane de Aguila",
    "url": "www.pyrenees-refuges.com/fr/affiche.php?numenr=455",
    "description": "cabane en bon état 4 places sur un bat flanc en metal nombreux rangements cheminee qui sert de poubelle et de depotoir a certains faineants incapables de redescendre leurs dechets dans la vallee ",
    "photoUrl": "https://www.pyrenees-refuges.com/media/photo/455_1437561669.jpg",
    "alt": 1900,
    "category": "sheld"
  },
  {
    "lat": 0.1120442,
    "lng": 42.7564068,
    "name": "Cabane Aguilous",
    "url": "www.pyrenees-refuges.com/fr/affiche.php?numenr=739",
    "description": "la cabane est maintenant fermé par un cadenas et une pancarte est affiche propriete privee c s v b reservee aux eleveurs cabane en bon état 8 places mais exigus a huit dedans quand meme elle se situe dans le haut de la montagne des aiguillous en face du gerbats sous le soum des tours ",
    "photoUrl": "https://www.pyrenees-refuges.com/media/photo/739_1556737855.jpg",
    "alt": 2220,
    "category": "sheld"
  },
  {
    "lat": -0.52863158190558,
    "lng": 42.787921181159,
    "name": "El'Aguila Refugio",
    "url": "www.pyrenees-refuges.com/fr/affiche.php?numenr=803",
    "description": "attention ce n est pas vraiment un refuge l auberge el aguila est nee en 1981 du reve de certains amoureux de ces montagnes qui ont transforme un chalet familial en 1ere refuge de montagne dans une station de ski candanchu apres plusieurs reformes les travaux les plus importants ont été realises en 1992 pour tenir compte de la distribution actuelle sur 2 etages de plusieurs chambres en 1997 les chambres quadruples avec salle de bains semblaient offrir un meilleur service ",
    "photoUrl": "https://www.pyrenees-refuges.com/media/photo/refugesansphoto.jpg",
    "alt": 1550,
    "category": "refuge"
  },
  {
    "lat": 1.714103703941,
    "lng": 42.297119505732,
    "name": "Refugi Prat d'Aguilo",
    "url": "www.pyrenees-refuges.com/fr/affiche.php?numenr=835",
    "description": "refuge guarde toute l annee nuitee seule 19 reservation par mail feec refusonline com ou téléphone 3497 364 16 81 tarifs 10 supplementaires en hiver sauf nuitee energie par butane et panneaux solaires douches place pour cuisine libre eau à l'interieur et exterieur chauffage par radiateurs et gasoil lits superposes avec couvertures matelas wc pas de téléphone partie hivernale matelas pas de couverture pas d eau pas de chauffage acces vehicules de la route puigcerda seu urgell a martinet prendre la route pour montella dans l entree route a droite et piste 15 km acces a pied par le couloir de cristal 6h de gosol par la sierra pedregosa 5h de montella 3h du refuge sant jordi par le col de pendis 4h du refuge estasen par la sierra pedregosa 4h ",
    "photoUrl": "https://www.pyrenees-refuges.com/media/photo/835_1320896818.jpg",
    "alt": null,
    "category": "refuge"
  },
  {
    "lat": 0.666388,
    "lng": 42.66555,
    "name": "Cabane dels Aiguallut",
    "url": "www.pyrenees-refuges.com/fr/affiche.php?numenr=892",
    "description": "cabane en tole verte sans confort mais située sur la hrp au dessus du trou du toro au sud avant d arriver sur le trou du toro montez sur la droite cabane invisible en venant de benasque",
    "photoUrl": "https://www.pyrenees-refuges.com/media/photo/aigualluts.jpg",
    "alt": 2070,
    "category": "sheld"
  },
  {
    "lat": 0.11320617,
    "lng": 42.7356766,
    "name": "Cabane des Aires",
    "url": "www.pyrenees-refuges.com/fr/affiche.php?numenr=456",
    "description": "petite cabane en bon état renovee en 2004 table froide car en beton ",
    "photoUrl": "https://www.pyrenees-refuges.com/media/photo/20210910_722925.jpg",
    "alt": 2132,
    "category": "sheld"
  },
  {
    "lat": 1.043333,
    "lng": 42.698056,
    "name": "Cabane d'Airoto",
    "url": "www.pyrenees-refuges.com/fr/affiche.php?numenr=732",
    "description": "cabane ouverte et en bon état",
    "photoUrl": "https://www.pyrenees-refuges.com/media/photo/732_1232909619.jpg",
    "alt": 2200,
    "category": "sheld"
  },
  {
    "lat": 2.18185265,
    "lng": 42.47616099,
    "name": "Cabane d'Aixeques",
    "url": "www.pyrenees-refuges.com/fr/affiche.php?numenr=880",
    "description": "sans porte forte source a 100m est nord est suivre la murette parallele a la piste ",
    "photoUrl": "https://www.pyrenees-refuges.com/media/photo/aixeques2.jpg",
    "alt": 1691,
    "category": "sheld"
  },
  {
    "lat": 0.0041,
    "lng": 42.73041,
    "name": "Cabane d'Alans",
    "url": "www.pyrenees-refuges.com/fr/affiche.php?numenr=1153",
    "description": "cabane pastorale dotée de deux lits avec matelas en mousse aucune fenêtre porte en metal et qui fermé correctement position e 0000 14 80 n 4243 49 42",
    "photoUrl": "https://www.pyrenees-refuges.com/media/photo/1153_1472998835.jpg",
    "alt": 1905,
    "category": "sheld"
  },
  {
    "lat": 1.2853,
    "lng": 42.7361,
    "name": "Cabane Etang Alet",
    "url": "www.pyrenees-refuges.com/fr/affiche.php?numenr=1360",
    "description": "cabane",
    "photoUrl": "https://www.pyrenees-refuges.com/media/photo/refugesansphoto.jpg",
    "alt": 1955,
    "category": "sheld"
  },
  {
    "lat": 2.2804,
    "lng": 42.4559,
    "name": "Cabane pastorale de Alemany",
    "url": "www.pyrenees-refuges.com/fr/affiche.php?numenr=1438",
    "description": "cabane reservee au vacher communal située a 200m de la cabane de l alemany",
    "photoUrl": "https://www.pyrenees-refuges.com/media/photo/2000_1477567651.jpg",
    "alt": 1990,
    "category": "sheld"
  },
  {
    "lat": 2.2811222076416,
    "lng": 42.456790025936,
    "name": "Cabane de Alemany",
    "url": "www.pyrenees-refuges.com/fr/affiche.php?numenr=852",
    "description": "table bancs poele a bois sympathique refuge qui peut etre difficile a localiser par temps de brouillard",
    "photoUrl": "https://www.pyrenees-refuges.com/media/photo/852_1433706319.jpg",
    "alt": 1968,
    "category": "sheld"
  },
  {
    "lat": 1.893333,
    "lng": 42.31944399,
    "name": "Niu de l'Aliga",
    "url": "www.pyrenees-refuges.com/fr/affiche.php?numenr=838",
    "description": "située au sommet de la tossa d alp en haut des remontees mecaniques accessible par une piste en été ouverte est surement ouvert en hiver aussi",
    "photoUrl": "https://www.pyrenees-refuges.com/media/photo/838_1320901446.jpg",
    "alt": 2520,
    "category": "sheld"
  },
  {
    "lat": -0.2758668,
    "lng": 42.8134958,
    "name": "Refuge Alphonse XIII",
    "url": "www.pyrenees-refuges.com/fr/affiche.php?numenr=6",
    "description": "refuge fermé ",
    "photoUrl": "https://www.pyrenees-refuges.com/media/photo/6_1197892247.jpg",
    "alt": 2140,
    "category": "sheld"
  },
  {
    "lat": 0.984166,
    "lng": 42.596944,
    "name": "Amitges",
    "url": "www.pyrenees-refuges.com/fr/affiche.php?numenr=827",
    "description": "refuge garde accessible avec les 4x4 taxi pour le refuge hiver 12 places avec couvertures matelas poste emetteur et poele a gaz",
    "photoUrl": "https://www.pyrenees-refuges.com/media/photo/827_1443299722.jpg",
    "alt": 2380,
    "category": "refuge"
  },
  {
    "lat": -0.46362519264221,
    "lng": 42.765122900771,
    "name": "Mallata de Anayet ou Refugio de Arroyetas",
    "url": "www.pyrenees-refuges.com/fr/affiche.php?numenr=789",
    "description": "immonde plein d ordures",
    "photoUrl": "https://www.pyrenees-refuges.com/media/photo/789_1560790678.jpg",
    "alt": 2018,
    "category": "sheld"
  },
  {
    "lat": -0.69816,
    "lng": 42.93954,
    "name": "Cayolar de Anaye",
    "url": "www.pyrenees-refuges.com/fr/affiche.php?numenr=8",
    "description": "ensemble de deux cabanes dont une ouverte hors periode estivale equipee de table 2 bancs poele a bois quelques meubles et d'une mezzanine",
    "photoUrl": "https://www.pyrenees-refuges.com/media/photo/8_1543249614.jpg",
    "alt": 1600,
    "category": "sheld"
  },
  {
    "lat": -0.70036,
    "lng": 42.9396,
    "name": "Cayolar anaye (coum)",
    "url": "www.pyrenees-refuges.com/fr/affiche.php?numenr=1465",
    "description": "petite cabane rustique située a 500m environ des cayolars principaux amenagement sommaire mais pouvant servird'abri ",
    "photoUrl": "https://www.pyrenees-refuges.com/media/photo/2000_1494965548.jpg",
    "alt": 1530,
    "category": "sheld"
  },
  {
    "lat": -0.15934479366866,
    "lng": 42.034254642739,
    "name": "Refuge du col d'Andorre",
    "url": "www.pyrenees-refuges.com/fr/affiche.php?numenr=890",
    "description": "10 places 12 maxi bas flanc etage pour le couchage le bas flanc est modulable pour se transformer en table bancs table en pierre lieu dans le bergons au dessus d argeles ",
    "photoUrl": "https://www.pyrenees-refuges.com/media/photo/890_1476471268.jpg",
    "alt": 1440,
    "category": "sheld"
  },
  {
    "lat": 2.0011361,
    "lng": 42.370655,
    "name": "Refuge de l'Orry Andreu",
    "url": "www.pyrenees-refuges.com/fr/affiche.php?numenr=366",
    "description": "2 batiments très degrades int ext couvertures herbacees du toit en vrac pas de porte ou ne fermant pas pas de fenêtres ou cassees volets ne fermant pas cheminees cassees ou deteriorees très sales int odeurs d urines dejections animales ordures les matelas sur sommiers metalliques 2 niveaux beaucoup plus que douteux très jolie jasse et très propre poubelles source aire de pic nic ",
    "photoUrl": "https://www.pyrenees-refuges.com/media/photo/366_1558024007.jpg",
    "alt": 1930,
    "category": "sheld"
  },
  {
    "lat": -0.55567999,
    "lng": 42.06304,
    "name": "Cabane du Col d'Andurte",
    "url": "www.pyrenees-refuges.com/fr/affiche.php?numenr=1328",
    "description": "petite cabane metallique en bon état et ouverte situé dans le massif au sud du col marie blanque table bancs couchage pour 3 un poele attention l abri metallique ne figure pas sur la carte ign il se situe en lisiere de foret au sud de l abreuvoir la cabane figurant sur la carte n est qu une ruine ",
    "photoUrl": "https://www.pyrenees-refuges.com/media/photo/1328_1444772573.jpg",
    "alt": 1380,
    "category": "sheld"
  },
  {
    "lat": 1.387778,
    "lng": 42.7822,
    "name": "Cabane Ane Labeilla",
    "url": "www.pyrenees-refuges.com/fr/affiche.php?numenr=987",
    "description": "petite cabane en pierres assez rustique refaite dans le cadre d'un programme pedagogique de decouverte du milieu montagnard mais on peut y dormir si besoin le bat flanc de rondins occupe tout l espace",
    "photoUrl": "https://www.pyrenees-refuges.com/media/photo/2000_1219678693.jpg",
    "category": "sheld"
  },
  {
    "lat": 0.40863452278775,
    "lng": 42.680014039647,
    "name": "Cabana Anes cruzes (Agnes Cruces)",
    "url": "www.pyrenees-refuges.com/fr/affiche.php?numenr=745",
    "description": "nouvelle cabane d anes cruses située sur un eperon a quelques metres au dessus du sentier hrp gr11 lit pour 1 personne 3 places a sol beton cheminee pas de bois en bon état renovee en 2006 mal placee sur carte n23 se trouve avant la separation gr11 hrp occupee par le berger en aout ",
    "photoUrl": "https://www.pyrenees-refuges.com/media/photo/15865623338081.jpg",
    "alt": 2100,
    "category": "sheld"
  },
  {
    "lat": 1.49525794,
    "lng": 42.6081693,
    "name": "Refuge de l'Angonella",
    "url": "www.pyrenees-refuges.com/fr/affiche.php?numenr=10",
    "description": "table bancs cheminee scie fontaine ",
    "photoUrl": "https://www.pyrenees-refuges.com/media/photo/10_1308772740.jpg",
    "alt": 2235,
    "category": "sheld"
  },
  {
    "lat": 1.691,
    "lng": 42.725,
    "name": "ANGAKA village Nordique",
    "url": "www.pyrenees-refuges.com/fr/affiche.php?numenr=1229",
    "description": "c est un village de yourte et tipi avec une cabane trappeur pour preparer les repas et manger toilettes seches douches solaires si soleil repas proposes par le restaurant du plateau reservation obligatoire ",
    "photoUrl": "https://www.pyrenees-refuges.com/media/photo/1229_1474536464.jpg",
    "alt": 1800,
    "category": "sheld"
  },
  {
    "lat": 0.45743465,
    "lng": 42.62748599,
    "name": "Refuge Angel'Orus - Forcau",
    "url": "www.pyrenees-refuges.com/fr/affiche.php?numenr=146",
    "description": "",
    "photoUrl": "https://www.pyrenees-refuges.com/media/photo/146_1292596095.jpg",
    "alt": 2100,
    "category": "sheld"
  },
  {
    "lat": -0.56172999,
    "lng": 42.81169,
    "name": "Cabane d'Anglus",
    "url": "www.pyrenees-refuges.com/fr/affiche.php?numenr=1306",
    "description": "cabane située au dessus des forges d abel très bon état propre bien equipee table poele mezzanine etc pas mal de bois sec pas d eau à proximité ",
    "photoUrl": "https://www.pyrenees-refuges.com/media/photo/1306_1447628860.jpg",
    "alt": 1290,
    "category": "sheld"
  },
  {
    "lat": 0.709369202672,
    "lng": 42.590163916211,
    "name": "Refuge d'Anglios",
    "url": "www.pyrenees-refuges.com/fr/affiche.php?numenr=9",
    "description": "table bancs pas de cheminee 4 places dans la piece principale 2 au grenier ",
    "photoUrl": "https://www.pyrenees-refuges.com/media/photo/9_1505161115.jpg",
    "alt": 2240,
    "category": "sheld"
  },
  {
    "lat": 1.99594,
    "lng": 42.54,
    "name": "Orri de l'Angoustrine",
    "url": "www.pyrenees-refuges.com/fr/affiche.php?numenr=1175",
    "description": "un orry avec cheminee pour s enfumer",
    "photoUrl": "https://www.pyrenees-refuges.com/media/photo/2002_1290363496.jpg",

    "category": "sheld"
  },
  {
    "lat": 0.759653,
    "lng": 42.716758,
    "name": "Cabana dera Pleta des Anheths",
    "url": "www.pyrenees-refuges.com/fr/affiche.php?numenr=1579",
    "description": "2 cabanes de bergers à visiter peu d'informations ",
    "photoUrl": "https://www.pyrenees-refuges.com/media/photo/2000_1546972218.jpg",
    "alt": 1768,
    "category": "sheld"
  },
  {
    "lat": 0.0172,
    "lng": 42.57419,
    "name": "Albergue A\u00f1isclo",
    "url": "www.pyrenees-refuges.com/fr/affiche.php?numenr=814",
    "description": "albergue abierto todo el ano ",
    "photoUrl": "https://www.pyrenees-refuges.com/media/photo/814_1321481223.jpg",
    "alt": 1281,
    "category": "refuge"
  },
  {
    "lat": -0.66689,
    "lng": 42.89135,
    "name": "Cabane de Ann\u00e8s (An\u00e8s)",
    "url": "www.pyrenees-refuges.com/fr/affiche.php?numenr=11",
    "description": "etat moyen equipement sommaire ",
    "photoUrl": "https://www.pyrenees-refuges.com/media/photo/11_1447628493.jpg",
    "alt": 1730,
    "category": "sheld"
  },
  {
    "lat": -0.7172694,
    "lng": 42.8974612,
    "name": "Cabane d'Ansab\u00e8re",
    "url": "www.pyrenees-refuges.com/fr/affiche.php?numenr=12",
    "description": "cabane de berger l'été avec une partie restant ouverte pour l hiver au rdc table 10 places 3 bancs 4 tabourets couchage à l'étage pas de bas flanc prevoir matelas couchage possible a 10 personnes ",
    "photoUrl": "https://www.pyrenees-refuges.com/media/photo/20220405_677614.jpg",
    "alt": 1550,
    "category": "sheld"
  },
  {
    "lat": -0.71969,
    "lng": 42.88773,
    "name": "Serre de Ansabe",
    "url": "www.pyrenees-refuges.com/fr/affiche.php?numenr=1387",
    "description": "petit abri de pierre toit plat equipement très sommaire lit pliant etagere mais l abri est en bon état et relativement propre source a 150m environ au se ",
    "photoUrl": "https://www.pyrenees-refuges.com/media/photo/2000_1447625886.jpg",
    "alt": 1965,
    "category": "sheld"
  },
  {
    "lat": -0.62,
    "lng": 42.809444,
    "name": "Cabane de Anso",
    "url": "www.pyrenees-refuges.com/fr/affiche.php?numenr=1005",
    "description": "vieille cabane sombre et humide en très mauvais etat a eviter pour la nuit située dans le vallon d aragon subordan pres de l escale d aygues tortes",
    "photoUrl": "https://www.pyrenees-refuges.com/media/photo/2001_1224490395.jpg",
    "alt": 1690,
    "category": "sheld"
  },
  {
    "lat": 0.61999261379242,
    "lng": 42.425052338109,
    "name": "Borda de Ansuils",
    "url": "www.pyrenees-refuges.com/fr/affiche.php?numenr=1601",
    "description": "grange qui tombe en ruines ",
    "photoUrl": "https://www.pyrenees-refuges.com/media/photo/2006_1550000444.jpg",
    "alt": 1482,
    "category": "sheld"
  },
  {
    "lat": 0.57059182,
    "lng": 42.8553664,
    "name": "Cabane d'Antenac Superieur",
    "url": "www.pyrenees-refuges.com/fr/affiche.php?numenr=14",
    "description": "cabane propre une seule place pas d eau cheminee mais peu de bois en urgence seulement preferer la cabane inferieure ",
    "photoUrl": "https://www.pyrenees-refuges.com/media/photo/14_1463702162.jpg",
    "alt": 1790,
    "category": "sheld"
  },
  {
    "lat": 0.57787079,
    "lng": 42.852926,
    "name": "Cabane de Antenac Inferieur ou Seridet",
    "url": "www.pyrenees-refuges.com/fr/affiche.php?numenr=13",
    "description": "eau de pluie uniquement a traiter ou source 200m de denivelee plus bas belle cabane entretenue presence de bois pas loin ",
    "photoUrl": "https://www.pyrenees-refuges.com/media/photo/13_1463701969.jpg",
    "alt": 1650,
    "category": "sheld"
  },
  {
    "lat": 1.8902778,
    "lng": 42.610556,
    "name": "Cabane de la Coume d'Anyell",
    "url": "www.pyrenees-refuges.com/fr/affiche.php?numenr=957",
    "description": "nouvelle cabane non reportee sur les cartes construite en 2004 située sur le GR10 entre le refuge des besines et le col 2mn avant le laquet sous le col et 100m au nord du GR10 brune partie fermée pour les bergers et une petite partie ouverte pour les randonneurs rien a part la couchette source devant la cabane ",
    "photoUrl": "https://www.pyrenees-refuges.com/media/photo/957_1251055514.jpg",
    "alt": 2350,
    "category": "sheld"
  },
  {
    "lat": 0.11771595,
    "lng": 42.9138144,
    "name": "Cabane d'Aoube",
    "url": "www.pyrenees-refuges.com/fr/affiche.php?numenr=16",
    "description": "petite cabane très mignone de l'extérieur",
    "photoUrl": "https://www.pyrenees-refuges.com/media/photo/16_1236086248.jpg",
    "alt": 1850,
    "category": "sheld"
  },
  {
    "lat": 0.26173040759292,
    "lng": 42.905378173663,
    "name": "Cabane de l'Aoub\u00e8re",
    "url": "www.pyrenees-refuges.com/fr/affiche.php?numenr=895",
    "description": "un peu en desordre mais un bon abri pour 4 situé en dessous du col de crabe ",
    "photoUrl": "https://www.pyrenees-refuges.com/media/photo/1000_1194878021.jpg",
    "alt": 1760,
    "category": "sheld"
  },
  {
    "lat": 0.93438929,
    "lng": 42.8160715,
    "name": "Cabane d'Aoua",
    "url": "www.pyrenees-refuges.com/fr/affiche.php?numenr=15",
    "description": "nommee cabane d haou sur carte ign table et bancs cheminee très agreable 1 matelas à l'étage ",
    "photoUrl": "https://www.pyrenees-refuges.com/media/photo/15_1408706750.jpg",
    "alt": 1320,
    "category": "sheld"
  },
  {
    "lat": 0.44483,
    "lng": 42.93090999,
    "name": "Cabane Col de l'Aouet",
    "url": "www.pyrenees-refuges.com/fr/affiche.php?numenr=477",
    "description": "cette cabane en tole verte est reservee au berger et donc fermée ",
    "photoUrl": "https://www.pyrenees-refuges.com/media/photo/477_1321521894.jpg",
    "alt": 1620,
    "category": "sheld"
  },
  {
    "lat": 0.12611,
    "lng": 42.96458,
    "name": "Cabane d'Aouet",
    "url": "www.pyrenees-refuges.com/fr/affiche.php?numenr=434",
    "description": "",
    "photoUrl": "https://www.pyrenees-refuges.com/media/photo/16858908704144.jpg",
    "alt": 1740,
    "category": "sheld"
  },
  {
    "lat": 1.0527778,
    "lng": 42.831667,
    "name": "Cabane d'Aouen",
    "url": "www.pyrenees-refuges.com/fr/affiche.php?numenr=975",
    "description": "cabane rustique mais sympa située sur le GR10 peu apres le pla de la lau petite cabane toujours ouverte qui se compose de 2 pièces 2 bons gros matelas eau juste a cote une cheminee mais qui ne tire pas très bien le bois est 150 metres plus bas la porte s ouvre vers l'extérieur donc prevoir une pelle en hiver la partie avec la porte sur le cote est difficile a ouvrir l autre avec la porte en face est toujours ouverte bas flancs en ciment difficile a apercevoir dans le paysage en montant du pla de la lau on peut facilement la rater surtout dans le brouillard ",
    "photoUrl": "https://www.pyrenees-refuges.com/media/photo/975_1541861908.jpg",
    "alt": 1550,
    "category": "sheld"
  },
  {
    "lat": -0.165331,
    "lng": 42.065063,
    "name": "Cabane de Aoulhet",
    "url": "www.pyrenees-refuges.com/fr/affiche.php?numenr=725",
    "description": "cabane sympathique",
    "photoUrl": "https://www.pyrenees-refuges.com/media/photo/725_1497384278.jpg",
    "alt": 1159,
    "category": "sheld"
  },
  {
    "lat": 1.8870359433235,
    "lng": 42.754299639931,
    "name": "Cabane Sorgeat Sarret (ex : Apailladou)",
    "url": "www.pyrenees-refuges.com/fr/affiche.php?numenr=1133",
    "description": "renovee et rebaptisee cabane pastorale de sorgeat sarret siituee sur le GR107 chemin des bonhommes dans le domaine de ski nordique du chioula une partie ouverte en permanence 1 table 5 chaises 1 volet et 1 porte metalliques 9 metres carres env sol en caillou de la piste robinet partie vacher ou source sud des abreuvoirs superbe vue des genets nb un tilleul rare a 1600 m ",
    "photoUrl": "https://www.pyrenees-refuges.com/media/photo/1133_1439062277.jpg",
    "alt": 1570,
    "category": "sheld"
  },
  {
    "lat": 1.74387809,
    "lng": 42.8151509,
    "name": "Cabane d'Appy",
    "url": "www.pyrenees-refuges.com/fr/affiche.php?numenr=17",
    "description": "cabane retapee trouvee ouverte le 3 08 2013 1 table 4 chaises cheminee couchage sur une planche 2 a 3 places",
    "photoUrl": "https://www.pyrenees-refuges.com/media/photo/20200522_499922.jpg",
    "alt": 1740,
    "category": "sheld"
  },
  {
    "lat": 1.73712696,
    "lng": 42.79557779,
    "name": "Abri d'Appy",
    "url": "www.pyrenees-refuges.com/fr/affiche.php?numenr=18",
    "description": "abri de fortune se trouvant en dessous du roche ecole d escalade ",
    "photoUrl": "https://www.pyrenees-refuges.com/media/photo/appyabri.jpg",
    "alt": 1100,
    "category": "sheld"
  },
  {
    "lat": 0.98107015,
    "lng": 42.8937966,
    "name": "Cabane du Col de l'Araing",
    "url": "www.pyrenees-refuges.com/fr/affiche.php?numenr=26",
    "description": "une nouvelle cabane en construction juste a cote ",
    "photoUrl": "https://www.pyrenees-refuges.com/media/photo/26_1510203404.jpg",
    "alt": 1350,
    "category": "sheld"
  },
  {
    "lat": 0.873333,
    "lng": 42.834444,
    "name": "Refuge de l'Etang d'Araing",
    "url": "www.pyrenees-refuges.com/fr/affiche.php?numenr=20",
    "description": "table poele dans la partie gardee partie hiver constituee par le dortoir surcouf 12 places avec matelas et couvertures 1 table banc à l'interieur et terrasse avec une table a l'extérieur si pas trop froid ",
    "photoUrl": "https://www.pyrenees-refuges.com/media/photo/araing.jpg",
    "alt": 1965,
    "category": "refuge"
  },
  {
    "lat": 2.44491643,
    "lng": 42.503919,
    "name": "refuge Arago",
    "url": "www.pyrenees-refuges.com/fr/affiche.php?numenr=19",
    "description": "toit de la cabane refait en 2015 ou 2014 interieur reamenage en 2016 ",
    "photoUrl": "https://www.pyrenees-refuges.com/media/photo/20230205_909766.jpg",
    "alt": 2136,
    "category": "sheld"
  },
  {
    "lat": -0.52869999,
    "lng": 42.78661,
    "name": "Valle d'Aragon",
    "url": "www.pyrenees-refuges.com/fr/affiche.php?numenr=802",
    "description": "auberge située a candachu",
    "photoUrl": "https://www.pyrenees-refuges.com/media/photo/802_1321523523.jpg",
    "alt": 1550,
    "category": "refuge"
  },
  {
    "lat": 0.8793962,
    "lng": 42.83393,
    "name": "Cabane de l'Etang d'Araing",
    "url": "www.pyrenees-refuges.com/fr/affiche.php?numenr=678",
    "description": "belle cabane en beton et toiture de toles interieur spacieux et très propre vaste plancher de bois à l'étage pour dormir table bancs grande cheminee balai elle est située juste derriere le barrage penser a y prendre de l eau en contrebas du refuge de l'étang d'Araing sur le GR10 ",
    "photoUrl": "https://www.pyrenees-refuges.com/media/photo/678_1474364396.jpg",
    "alt": 1965,
    "category": "sheld"
  },
  {
    "lat": 1.82943,
    "lng": 42.58144,
    "name": "Refuge de Aramasses ou cabane \u00e0 Giral",
    "url": "www.pyrenees-refuges.com/fr/affiche.php?numenr=1386",
    "description": "cabane enterree située sur la crete entre querforc et trespunts nombreux etais interieurs peu rassurants table 2 matelas pas d eau ni bois ",
    "photoUrl": "https://www.pyrenees-refuges.com/media/photo/2000_1446292173.jpg",
    "alt": 2479,
    "category": "sheld"
  },
  {
    "lat": 0.790736,
    "lng": 42.797482,
    "name": "Cabana de Arbaet",
    "url": "www.pyrenees-refuges.com/fr/affiche.php?numenr=1572",
    "description": "à visiter peu d'informations peut etre fermée elle semble pas très solide ",
    "photoUrl": "https://www.pyrenees-refuges.com/media/photo/2005_1546981890.jpg",
    "alt": 1840,
    "category": "sheld"
  },
  {
    "lat": 0.0287,
    "lng": 42.9051,
    "name": "Cabane de Arbeouse",
    "url": "www.pyrenees-refuges.com/fr/affiche.php?numenr=1365",
    "description": "cabane en bon état mais sommaire avec un bac flanc metallique et une cheminee pas de table ni de bancs utilisee par les bergers pour deposer un peu de materiel ",
    "photoUrl": "https://www.pyrenees-refuges.com/media/photo/1365_1503906419.jpg",
    "alt": 1782,
    "category": "sheld"
  },
  {
    "lat": 1.511392,
    "lng": 42.633395,
    "name": "Cabane Arcalis (ou Pleta castellar)",
    "url": "www.pyrenees-refuges.com/fr/affiche.php?numenr=578",
    "description": "une cabane a deux pas de l ancienne route des lacs très propre une cheminee une petite table avec bancs et un bat flanc pour 4 personnes torrent proche prevoir pastilles purificatrice",
    "photoUrl": "https://www.pyrenees-refuges.com/media/photo/578_1287426637.jpg",
    "alt": 1838,
    "category": "sheld"
  },
  {
    "lat": 1.1123,
    "lng": 42.80319999,
    "name": "Cabane de Arcouzan",
    "url": "www.pyrenees-refuges.com/fr/affiche.php?numenr=1342",
    "description": "vieille cabane en pierres le toit a l air recent à l'interieur un vieux matelas place pour 1 bon je mets 2 en serrant ",
    "photoUrl": "https://www.pyrenees-refuges.com/media/photo/1342_1472693424.jpg",
    "alt": 1380,
    "category": "sheld"
  },
  {
    "lat": -0.9404897,
    "lng": 42.967179,
    "name": "Abri d'Ardane Gagnekoa",
    "url": "www.pyrenees-refuges.com/fr/affiche.php?numenr=22",
    "description": "belle cabane recemment refaite ouverte située en contrebas de la route au nord de la maison du berger coin magnifique située sur la hrp ",
    "photoUrl": "https://www.pyrenees-refuges.com/media/photo/22_1554716842.jpg",
    "alt": 1312,
    "category": "sheld"
  },
  {
    "lat": -0.9438888,
    "lng": 42.976944,
    "name": "Cabane d'Ardane Pekoa",
    "url": "www.pyrenees-refuges.com/fr/affiche.php?numenr=712",
    "description": "edit cabane privee utilisee par les bergers a n utiliser qu en cas d urgence ou de tempete la cabane ouverte se situe plus en amont en bord de route cabane completement renovee avec cheminee et bas flanc neuf ainsi que toit refait avec tuiles en bois ",
    "photoUrl": "https://www.pyrenees-refuges.com/media/photo/712_1315424751.jpg",
    "alt": 1150,
    "category": "sheld"
  },
  {
    "lat": -0.6949553,
    "lng": 42.9597845,
    "name": "Cabane d'Ardinet",
    "url": "www.pyrenees-refuges.com/fr/affiche.php?numenr=23",
    "description": "cabane bien isolee du vent rez de chaussee 2 bancs et des etageres en metal une echelle en bois plus que rustique permet d acceder a une mezzanine en bois ou l on peut dormir a 4 voir 6 bien tasse la seconde partie de la cabane est occupee par le berger l'été ",
    "photoUrl": "https://www.pyrenees-refuges.com/media/photo/23_1292444169.jpg",
    "alt": 1570,
    "category": "sheld"
  },
  {
    "lat": 1.22830788,
    "lng": 42.77879389,
    "name": "Cabane d'Ardio",
    "url": "www.pyrenees-refuges.com/fr/affiche.php?numenr=715",
    "description": "cheminee mais bois 400m plus bas il y avait du bois dans la cabane quand on est arrives breau 200m plus bas brune vitre cassee penser a amener du gros scotch pour reparer provisoirement par exemple ",
    "photoUrl": "https://www.pyrenees-refuges.com/media/photo/ardio.jpg",
    "alt": 1660,
    "category": "sheld"
  },
  {
    "lat": 1.0833,
    "lng": 42.8981,
    "name": "Cabane du col de l'Arrech (de Bethmale)",
    "url": "www.pyrenees-refuges.com/fr/affiche.php?numenr=1118",
    "description": "3 cabanes situées au col de l arech sur la longue crete nord ouest du cap de bouirex les 2 cabanes au sud de la piste sont fermées une petite cabane située au nord est ouverte mais très tres spartiate c est un ancien petit container de chantier entoure de planches je croyais que c etait une caravane au depart ca peut toujours servir en cas d orage une table et un peu de place pour s allonger si besoin ",
    "photoUrl": "https://www.pyrenees-refuges.com/media/photo/1118_1441097058.jpg",
    "alt": 1418,
    "category": "sheld"
  },
  {
    "lat": 0.96835871,
    "lng": 42.8269328,
    "name": "Cabane Arech",
    "url": "www.pyrenees-refuges.com/fr/affiche.php?numenr=533",
    "description": "située sur le GR10 acces egalement depuis le parking de la pucelle ou de celui de bocard d eylie cabane renovee en 2013 2014 une nouvelle cabane pour le berger et l ancienne cabane est disponible pour les randonneurs robinet a l'extérieur captage gele l hiver peu accueillir jusqu a 8 personnes 4 à l'étage et 4 en bas",
    "photoUrl": "https://www.pyrenees-refuges.com/media/photo/533_1541753216.jpg",
    "alt": 1635,
    "category": "sheld"
  },
  {
    "lat": 0.9553,
    "lng": 42.8258,
    "name": "Abri sous le col Arech",
    "url": "www.pyrenees-refuges.com/fr/affiche.php?numenr=1355",
    "description": "petit abri sur le GR10 le toit n est pas completement etanche le sol est jonche de pierres et il semble avoir été visite par les brebis il est quand meme utilisable mais seulement en cas de coup dur",
    "photoUrl": "https://www.pyrenees-refuges.com/media/photo/1355_1441391093.jpg",
    "alt": 1663,
    "category": "sheld"
  },
  {
    "lat": 0.4670262336731,
    "lng": 42.919486759648,
    "name": "Cabane Areng",
    "url": "www.pyrenees-refuges.com/fr/affiche.php?numenr=478",
    "description": "cabane en excellent etat très bien equipee poele a bois scie pour gros bois ustensiles de cuisine 3 matelas très confortables à l'étage et au moins 1 couverture matelas gonflables eau et bois à proximité gaz pas reussi a le faire fonctionner capacite 5 personnes cabane utilisee par le berger de juin a septembre eau a l abreuvoir lumiere sur batterie panneau solaire pas compris comment cela fonctionne donc prevoir gaz et lumiere ",
    "photoUrl": "https://www.pyrenees-refuges.com/media/photo/478_1477151372.jpg",
    "alt": 1620,
    "category": "sheld"
  },
  {
    "lat": 0.2955,
    "lng": 42.7629,
    "name": "Cabane de Aret",
    "url": "www.pyrenees-refuges.com/fr/affiche.php?numenr=1384",
    "description": "cabane renovee en 2014 située au nord est du pic d aret en lisiere du bois partie ouverte cote nord table bancs 6 places avec un bas flancs en hauteur et en comptant les 2 bancs larges et assez longs pas de cheminee alors qu il y a le conduit exterieur plusieurs sources boueuses à proximité ",
    "photoUrl": "https://www.pyrenees-refuges.com/media/photo/1384_1508491743.jpg",
    "alt": 1720,
    "category": "sheld"
  },
  {
    "lat": 2.2557,
    "lng": 42.509,
    "name": "Refuge Forestier de Argoudeil",
    "url": "www.pyrenees-refuges.com/fr/affiche.php?numenr=609",
    "description": "",
    "photoUrl": "https://www.pyrenees-refuges.com/media/photo/refugesansphoto.jpg",
    "alt": 1473,
    "category": "sheld"
  },
  {
    "lat": 0.7425,
    "lng": 42.9405556,
    "name": "Cabane d'Arguenos",
    "url": "www.pyrenees-refuges.com/fr/affiche.php?numenr=1042",
    "description": "située pres de la piste forestiere du col de caube ouverte toute petite cabane très agreable ",
    "photoUrl": "https://www.pyrenees-refuges.com/media/photo/1042_1322397252.jpg",
    "alt": 1210,
    "category": "sheld"
  },
  {
    "lat": 1.606127,
    "lng": 42.409625,
    "name": "Barraca de l'Orri d'Aristot",
    "url": "www.pyrenees-refuges.com/fr/affiche.php?numenr=1665",
    "description": "cabane à visiter peu d'informations situé entre la moixeronera et coll de la font d aristot ",
    "photoUrl": "https://www.pyrenees-refuges.com/media/photo/2004_1558107413.jpg",
    "alt": 1985,
    "category": "sheld"
  },
  {
    "lat": 0.16311909,
    "lng": 42.936877,
    "name": "Cabane d'Arizes",
    "url": "www.pyrenees-refuges.com/fr/affiche.php?numenr=679",
    "description": "2002 cabane delabree cote randonneurs neige à l'interieur passee par le toit possibilite de dormir sous la souspente par terre toit refait doit proteger de la pluie en gros c est en etat moyen 2016 une partie de la cabane est disponible comme un refuge pour les randonneurs dans cette section de 10 12 m2 sont empiles beaucoup de chaises et canapes il reste la place pour deux personnes pour dormir sur le sol ou table ",
    "photoUrl": "https://www.pyrenees-refuges.com/media/photo/679_1474144356.jpg",
    "alt": 1700,
    "category": "sheld"
  },
  {
    "lat": -1.533794202223,
    "lng": 42.198168406832,
    "name": "Bergerie d'Arizkun",
    "url": "www.pyrenees-refuges.com/fr/affiche.php?numenr=688",
    "description": "bergerie pouvant servir d'abri situé sur le hrp etape n2 proche du col de bagacheta au dessus du village d'Arizkun attention le positionnement est approximatif ",
    "photoUrl": "https://www.pyrenees-refuges.com/media/photo/bergerie_arizkun.jpg",
    "alt": 650,
    "category": "sheld"
  },
  {
    "lat": -0.6156851904608,
    "lng": 42.84054171143,
    "name": "Refuge d'Arlet",
    "url": "www.pyrenees-refuges.com/fr/affiche.php?numenr=24",
    "description": "en raison de gros travaux de renovation ouverture prevue dans le courant de lete 2023 joli refuge garde du parc national situé sur l hrp pas de pic d envergure dans la zone dommage les tarifs sont 33 la demi pension adulte 31 les 12 16 ans et 25 de 12 ans mail hors saison refuge arlet yahoo fr car pas de connexion internet au refuge nouvelles gardiennes en 2011 05 59 36 00 99 au refuge ou en dehors des dates d ouverture 06 48 99 38 22 partie hiver piece sous l escalier froid matelas couvertures",
    "photoUrl": "https://www.pyrenees-refuges.com/media/photo/24_1222257027.jpg",
    "alt": 1986,
    "category": "refuge"
  },
  {
    "lat": 0.34706711769104,
    "lng": 42.524044315728,
    "name": "Refugio d'Armena",
    "url": "www.pyrenees-refuges.com/fr/affiche.php?numenr=25",
    "description": "joli refuge non garde en bon état grande table et bancs cheminee téléphone de secours armoire premiers secours grille de barbecue casserolles inox trepier pour poser sur le feu balai terrasse exterieure au milieu des paturages clairsemes de pins eau a la fuente de rianzes a 2 min ",
    "photoUrl": "https://www.pyrenees-refuges.com/media/photo/25_1315515230.jpg",
    "alt": 1860,
    "category": "sheld"
  },
  {
    "lat": -0.5698,
    "lng": 42.93289999,
    "name": "Cabane de Arna",
    "url": "www.pyrenees-refuges.com/fr/affiche.php?numenr=1435",
    "description": "cabane notee sur la carte mais en ruines située a l est de cette eygun en vallee d aspe",
    "photoUrl": "https://www.pyrenees-refuges.com/media/photo/refugesansphoto.jpg",
    "alt": 950,
    "category": "sheld"
  },
  {
    "lat": -0.5321076,
    "lng": 42.8248468,
    "name": "Cabane Arnousse",
    "url": "www.pyrenees-refuges.com/fr/affiche.php?numenr=418",
    "description": "cabane fermée utilisee par un berger en periode estivale presence de porches pouvant servird'abri ",
    "photoUrl": "https://www.pyrenees-refuges.com/media/photo/418_1494877728.jpg",
    "alt": 1500,
    "category": "sheld"
  },
  {
    "lat": 0.88184672,
    "lng": 42.8772192,
    "name": "Cabane Aron",
    "url": "www.pyrenees-refuges.com/fr/affiche.php?numenr=534",
    "description": "cabane sans doute en cours de renovation cheminee toit cheminee un sommier metallique sans matelas pas de table baucoup de materiel de construction pas de bois eau a 100m une source notee sur la carte a 5mn",
    "photoUrl": "https://www.pyrenees-refuges.com/media/photo/534_1546186599.jpg",
    "alt": 1550,
    "category": "sheld"
  },
  {
    "lat": 0.2702,
    "lng": 42.89459999,
    "name": "Cabane lac Arou",
    "url": "www.pyrenees-refuges.com/fr/affiche.php?numenr=1285",
    "description": "la cabane a une dizaine d annees et a toujours été fermée a priori elle est faite pour les bergers mais elle n est jamais occupee ",
    "photoUrl": "https://www.pyrenees-refuges.com/media/photo/2000_1426940395.jpg",
    "alt": 1800,
    "category": "sheld"
  },
  {
    "lat": 1.4431,
    "lng": 42.86399999,
    "name": "Cabane du Courtal d'Aroulac",
    "url": "www.pyrenees-refuges.com/fr/affiche.php?numenr=1267",
    "description": "cabane exigue au confort sommaire mais avec cheminee porte et fenêtre en bon état ",
    "photoUrl": "https://www.pyrenees-refuges.com/media/photo/2001_1407749950.jpg",
    "alt": 1534,
    "category": "sheld"
  },
  {
    "lat": 1.522835341429,
    "lng": 42.212602751253,
    "name": "Refugi de l'Arp",
    "url": "www.pyrenees-refuges.com/fr/affiche.php?numenr=1702",
    "description": "refuge garde se renseigner sur le site pour les periodes de gardiennage le refuge dispose de 21 places chambres de 2 4 ou 8 personnes 2 salles de bains communes avec douches chaudes au premier etage se trouve la salle a manger avec salon cheminee espace pour enfants bibliotheque et jeux de societe location de velos wifi ",
    "photoUrl": "https://www.pyrenees-refuges.com/media/photo/15736107843668.jpg",
    "alt": null,
    "category": "refuge"
  },
  {
    "lat": -0.4719867,
    "lng": 42.9750079,
    "name": "Refuge d'Arrioutort",
    "url": "www.pyrenees-refuges.com/fr/affiche.php?numenr=30",
    "description": "table bancs grande cheminee bois et eau à proximité il y a plusieurs lits avec sommiers a ressorts et de très vieux matelas a letage inferieur pour environ 8 ou 10 personnes à l'étage il y a une plate forme ou 15 autres personnes peuvent etre hebergees",
    "photoUrl": "https://www.pyrenees-refuges.com/media/photo/30_1544712807.jpg",
    "alt": 1530,
    "category": "sheld"
  },
  {
    "lat": -0.3654871,
    "lng": 42.84172079,
    "name": "Cabane d'Arrious",
    "url": "www.pyrenees-refuges.com/fr/affiche.php?numenr=29",
    "description": "",
    "photoUrl": "https://www.pyrenees-refuges.com/media/photo/arrious5.jpg",
    "alt": 1775,
    "category": "sheld"
  },
  {
    "lat": -0.3293,
    "lng": 42.84611,
    "name": "Refuge d'Arremoulit",
    "url": "www.pyrenees-refuges.com/fr/affiche.php?numenr=27",
    "description": "le refuge est fermé pour travaux du mois de juin 2023 jusqu a l'été 2025 il n y a pas d hebergement possible sur ce site pendant cette periode le refuge est situé au pied de la face nord ouest du palas dans un magnifique site lacustre au coeur du parc national des Pyrénées particulierement bien place pour l ascension du palas de l arriel ou du balaitous il est refuge etape de la traversee des Pyrénées hrp periode de gardiennage refuge garde de debut juin a fin septembre possibilite de reservations en dehors de cette periode mais l acces est delicat en hiver ",
    "photoUrl": "https://www.pyrenees-refuges.com/media/photo/27_1474229630.jpg",
    "alt": 2305,
    "category": "refuge"
  },
  {
    "lat": 0.442222,
    "lng": 42.872222,
    "name": "Cabane d'Arrieu Tort",
    "url": "www.pyrenees-refuges.com/fr/affiche.php?numenr=28",
    "description": "située sur le chemin du lac balise en jaune et dont l autre extremite est accessible depuis la piste forestiere de risdifficile a trouver le chemin est très peu visible cabane fermée pour l instant par l ONF car trop endommagee ",
    "photoUrl": "https://www.pyrenees-refuges.com/media/photo/28_1271442542.jpg",
    "alt": 1630,
    "category": "sheld"
  },
  {
    "lat": -0.1805,
    "lng": 42.8781,
    "name": "Cabanes de Arras",
    "url": "www.pyrenees-refuges.com/fr/affiche.php?numenr=1374",
    "description": "cabanes situées sur le GR10 entre col d ilheou et refuge d ilheou",
    "photoUrl": "https://www.pyrenees-refuges.com/media/photo/refugesansphoto.jpg",
    "alt": 2185,
    "category": "sheld"
  },
  {
    "lat": 0.9710926,
    "lng": 42.8674504,
    "name": "Cabane de l'Arraing",
    "url": "www.pyrenees-refuges.com/fr/affiche.php?numenr=1288",
    "description": "petite cabane sur la variante GR10e depuis bonac peu visible a la montee cachee par des arbrisseaux rez de chaussee sale aucun equipement pas de cheminee etage plancher en bois sale pas d eau à proximité ",
    "photoUrl": "https://www.pyrenees-refuges.com/media/photo/2000_1430672017.jpg",
    "alt": 1129,
    "category": "sheld"
  },
  {
    "lat": -0.63874,
    "lng": 42.01657,
    "name": "Cabane d'Arr\u00e8s",
    "url": "www.pyrenees-refuges.com/fr/affiche.php?numenr=1453",
    "description": "petite cabane renovee assez somaire ",
    "photoUrl": "https://www.pyrenees-refuges.com/media/photo/2001_1483385742.jpg",
    "alt": 1350,
    "category": "sheld"
  },
  {
    "lat": -0.3994372,
    "lng": 42.8423389,
    "name": "Cabane d'Arr\u00e8gatiou",
    "url": "www.pyrenees-refuges.com/fr/affiche.php?numenr=753",
    "description": "belle cabane avec 4 matelas mousse sur la mezzanine de la place au rez de chaussee le mobilier laisse a desirer mais on loge a 6 en se serrant la cheminee est un peu haute mais chauffe quand meme on trouve du bois mort en descendant dans la forêt une scie este a disposition un petit cours d eau à proximité vue superbe sur le palas et les cretes de soques ",
    "photoUrl": "https://www.pyrenees-refuges.com/media/photo/753_1546955381.jpg",
    "alt": 1650,
    "category": "sheld"
  },
  {
    "lat": -0.329,
    "lng": 42.9216,
    "name": "cabane d\u2019Arre",
    "url": "www.pyrenees-refuges.com/fr/affiche.php?numenr=1652",
    "description": "cabane ouverte en pierre renove en 2015 ",
    "photoUrl": "https://www.pyrenees-refuges.com/media/photo/2000_1555422021.jpg",
    "alt": 2400,
    "category": "sheld"
  },
  {
    "lat": 1.1328685264012,
    "lng": 42.781889706664,
    "name": "Cabane pastorale d'Arreau (Areou)",
    "url": "www.pyrenees-refuges.com/fr/affiche.php?numenr=914",
    "description": "cabane de berger fermée aux randonneurs meme en hiver a noter un robinet d eau a l'extérieur de la cabane et une remise a materiel sur la droite qui peut servir pour s abriter en cas d orage ",
    "photoUrl": "https://www.pyrenees-refuges.com/media/photo/16810373757825.jpeg",
    "alt": 1697,
    "category": "sheld"
  },
  {
    "lat": 1.1304864968713,
    "lng": 42.776897154066,
    "name": "Refuge forestier d'Arreau (ou Areou)",
    "url": "www.pyrenees-refuges.com/fr/affiche.php?numenr=915",
    "description": "refuge de l ONF fermée aux randonneurs et curieusement placee dans un site ou il n y a pas un arbre a plusieurs kilometres a la ronde brva etre transforme en gite ONF pour le reseau recouvrance toit arrache par klaus en janvier 2009",
    "photoUrl": "https://www.pyrenees-refuges.com/media/photo/16810385087130.jpeg",
    "alt": 1886,
    "category": "sheld"
  },
  {
    "lat": 1.24273744,
    "lng": 42.7411286,
    "name": "Cabane d'Arrech",
    "url": "www.pyrenees-refuges.com/fr/affiche.php?numenr=855",
    "description": "cabane ouverte semble occupee par un berger beaucoup d affaires à l'interieur abords et interieur assez sale eau à proximité pas de bois attention descente galere et dangereuse sur ossese par cette cabane ",
    "photoUrl": "https://www.pyrenees-refuges.com/media/photo/855_1473616270.jpg",
    "alt": 1777,
    "category": "sheld"
  },
  {
    "lat": -0.20505,
    "lng": 42.89975,
    "name": "Cabane Arriousec",
    "url": "www.pyrenees-refuges.com/fr/affiche.php?numenr=417",
    "description": "belle cabane ouverte lors de mon passage en hivers 2014 une cheminee une table deux bancs une mezzanine avec 2x4 places pour dormir assez grande et propre avec un peu de bazarre foret et ruisseau à proximité bon point de depart pour le grand barbat aout 2014 nous avions decide de profiter une nuit ou 2 de cette jolie cabane apres avoir crapahute presque une heure nous arrivons enfin a la cabane et surprise l endroit est investi a outrance avec cochons parques et cuves pour faire fromage le tout gere par une famille qui m apprend qu en fait ils passent tout l'été ici chaque annee trop cool pour les autres bien decus et degoutes par cet abus nous navions plus qu a trouver un coin paisible et non empeste par les divers excrements pour pouvoir profiter de la beaute de la nature alors avis aux amateurs cherchez une autre cabane ou emportez la tente ",
    "photoUrl": "https://www.pyrenees-refuges.com/media/photo/417_1391504062.jpg",
    "alt": 1400,
    "category": "sheld"
  },
  {
    "lat": -0.38027286529541,
    "lng": 42.780677041628,
    "name": "Arrigal",
    "url": "www.pyrenees-refuges.com/fr/affiche.php?numenr=1560",
    "description": "il est utilisable mais pas du tout entretenu l'été il y a des vaches",
    "photoUrl": "https://www.pyrenees-refuges.com/media/photo/refugesansphoto.jpg",

    "category": "sheld"
  },
  {
    "lat": 0.48618307,
    "lng": 42.7322496,
    "name": "Cabane d'Arrouge",
    "url": "www.pyrenees-refuges.com/fr/affiche.php?numenr=31",
    "description": "cabane refaite et en très bon état general cheminee une table avec 2 bancs 2 matelas en bon état et 2 vieilles couvertures un placard pour y stocker des victuailles occupee par le berger jusqu au 6 septembre mais de facon sporadique la plupart du temps inoccupee ",
    "photoUrl": "https://www.pyrenees-refuges.com/media/photo/31_1474274384.jpg",
    "alt": 2120,
    "category": "sheld"
  },
  {
    "lat": 0.0816666,
    "lng": 42.995,
    "name": "Cabane Arrodets",
    "url": "www.pyrenees-refuges.com/fr/affiche.php?numenr=435",
    "description": "jolie vue de l'extérieur mais cabane en mauvais etat et sale la toiture s effondrera bientot si rien n est fait presence d'une table et de deux matelas dans un etat très moyens eux aussi bonnes sources 50m au dessus peut neanmoins encore servird'abri sommaire si besoin ",
    "photoUrl": "https://www.pyrenees-refuges.com/media/photo/435_1509298109.jpg",
    "alt": 1380,
    "category": "sheld"
  },
  {
    "lat": 1.34639897,
    "lng": 42.7360796,
    "name": "Cabane du Turon d'Ars",
    "url": "www.pyrenees-refuges.com/fr/affiche.php?numenr=569",
    "description": "une nouvelle cabane a été construite en 2013 ouverte bon état propre 5 matelas un peu grands et il est difficile de dormir sur les trois couchages haut un poele tabourets une table centrale video de la construction http www youtube com watch v b5dadominkg",
    "photoUrl": "https://www.pyrenees-refuges.com/media/photo/569_1380991091.jpg",
    "alt": 1831,
    "category": "sheld"
  },
  {
    "lat": 0.94594999,
    "lng": 42.809755,
    "name": "Cabane d'Artignan",
    "url": "www.pyrenees-refuges.com/fr/affiche.php?numenr=875",
    "description": "",
    "photoUrl": "https://www.pyrenees-refuges.com/media/photo/artignan1.jpg",
    "alt": 2010,
    "category": "sheld"
  },
  {
    "lat": 0.3375,
    "lng": 42.9806,
    "name": "Cabane d'Artigueluz",
    "url": "www.pyrenees-refuges.com/fr/affiche.php?numenr=1050",
    "description": "petite cabane en très bon état propre et ouvert du moins en hiver lors de mon passage table et chaises cheminee au rdc couchage à l'étage sur plancher avec de gros matelas mousse pour 3 personnes 2 en bas par terre si besoin seul bemol je n ai pas vu d eau",
    "photoUrl": "https://www.pyrenees-refuges.com/media/photo/1050_1231095372.jpg",
    "alt": 1396,
    "category": "sheld"
  },
  {
    "lat": 1.50802373,
    "lng": 42.8176841,
    "name": "Cabane de Artats",
    "url": "www.pyrenees-refuges.com/fr/affiche.php?numenr=32",
    "description": "sommaire mais propre pas de cheminee mais un poele penser a ramasser du bois avant de sortir de la forêt attention cabane reservee par les pecheurs en juin et juillet donc ne comptez pas uniquement dessus par contre a cote de la cabane principale il y a aussi une cabanne sans couchages avec sol beton qui permet de dormir a 4 personnes ",
    "photoUrl": "https://www.pyrenees-refuges.com/media/photo/32_1230666609.jpg",
    "alt": 1695,
    "category": "sheld"
  },
  {
    "lat": 1.68288088,
    "lng": 42.7123158,
    "name": "Cabane Artaran",
    "url": "www.pyrenees-refuges.com/fr/affiche.php?numenr=610",
    "description": "cabane renovee depuis octobre 2018 les randonneurs ont une piece ouverte l'été seulement 15 juin au 15 septembre environ mesure prise par le village de verdun pour eviter les squats une autre piece fermée est disponible avec accord de la mairie de verdun des videos d evolution de la cabane sont disponibles sur youtube en cherchant jacob karhu racontant la renovation benevole par un etudiant source indiquee en descendant sur le barrage de riete qqes centaines de metres assechee a cette periode ",
    "photoUrl": "https://www.pyrenees-refuges.com/media/photo/610_1540234819.jpg",
    "alt": 1695,
    "category": "sheld"
  },
  {
    "lat": -0.4792,
    "lng": 42.9275,
    "name": "Cabane de Artigue de Sesques",
    "url": "www.pyrenees-refuges.com/fr/affiche.php?numenr=1156",
    "description": "attention cabane detruite par une avalanche lors de l hiver 2014 2015 en reconstruction été 2016 a la sortie du bois sur la droite ancienne description jolie cabane ouverte toute l annee a ne pas confondre avec le cujala de sesques cabane de berger située un peu plus haut dans le meme vallon mais reservee aux bergers et fermée agreable propre pas de matelas un bas flanc un etage rnnombreuses randonnees pic de sesques pour montagnards confirmes ou lac de sesques ",
    "photoUrl": "https://www.pyrenees-refuges.com/media/photo/1156_1474200784.jpg",
    "alt": 1413,
    "category": "sheld"
  },
  {
    "lat": 0.6974167,
    "lng": 42.87647969,
    "name": "Cabane Artiguessans",
    "url": "www.pyrenees-refuges.com/fr/affiche.php?numenr=493",
    "description": "",
    "photoUrl": "https://www.pyrenees-refuges.com/media/photo/493_1198134730.jpg",
    "alt": 990,
    "category": "sheld"
  },
  {
    "lat": 0.7536111,
    "lng": 42.886944,
    "name": "Cabane de l'Artigue (col d'Esponne)",
    "url": "www.pyrenees-refuges.com/fr/affiche.php?numenr=1043",
    "description": "tres jolie cabane cheminee et grande table avec chaises et banc couchage à l'étage avec 1 matelas 3 mousses 1 pers fenêtre à l'étage possibilite de dormir par terre a 2 ou 3 au rdc eau à proximité toit en tole non isolee ",
    "photoUrl": "https://www.pyrenees-refuges.com/media/photo/20201109_612483.jpg",
    "alt": 1356,
    "category": "sheld"
  },
  {
    "lat": 0.285,
    "lng": 42.011944,
    "name": "Courtaou de Artigualeou",
    "url": "www.pyrenees-refuges.com/fr/affiche.php?numenr=1060",
    "description": "grande cabane avec cheminee longue table banc 2 chaises et une serie de fauteuils de spectacle ou en etat 1 etage avec escalier toit en tole non isole beaucoup de place pour dormir en haut et en bas pas de couchage murs tagges et cabane très sale en avril 2019 on a en partie nettoye très joli environnement ",
    "photoUrl": "https://www.pyrenees-refuges.com/media/photo/refugesansphoto.jpg",
    "alt": 860,
    "category": "sheld"
  },
  {
    "lat": 2.442175,
    "lng": 42.392766,
    "name": "abri pastoral Artigues de En Cases",
    "url": "www.pyrenees-refuges.com/fr/affiche.php?numenr=1480",
    "description": "abri pastoral une partie fermé pour le berger et une partie ouverte en bonne etat",
    "photoUrl": "https://www.pyrenees-refuges.com/media/photo/2000_1505078840.jpg",
    "alt": 1550,
    "category": "sheld"
  },
  {
    "lat": 0.18953069277672,
    "lng": 42.819620063662,
    "name": "Cabane d'Artigusse",
    "url": "www.pyrenees-refuges.com/fr/affiche.php?numenr=34",
    "description": "table bancs",
    "photoUrl": "https://www.pyrenees-refuges.com/media/photo/artigusse.jpg",
    "alt": 1650,
    "category": "sheld"
  },
  {
    "lat": 0.78559763745491,
    "lng": 42.889391613159,
    "name": "Cabane du col d'Artigascou",
    "url": "www.pyrenees-refuges.com/fr/affiche.php?numenr=1188",
    "description": "cabane sous le col d artigascou propre grande cheminee couchage à l'étage accessible par une echelle propre grille disponible",
    "photoUrl": "https://www.pyrenees-refuges.com/media/photo/2001_1303463029.jpg",

    "category": "sheld"
  },
  {
    "lat": 0.64810737739167,
    "lng": 42.882237975246,
    "name": "Cabane de l'Artigue de Burgalays",
    "url": "www.pyrenees-refuges.com/fr/affiche.php?numenr=1753",
    "description": "cabane spacieuse 2 pièces mais sale le 21 01 2022 située dans une vaste clairiere de la forêt de burat palaquere 1 echelle permet de monter à l'étage tables bancs grande cheminee grille ",
    "photoUrl": "https://www.pyrenees-refuges.com/media/photo/16782115278327.jpg",
    "alt": 1350,
    "category": "sheld"
  },
  {
    "lat": -0.335406,
    "lng": 42.874889,
    "name": "Cabane d'Artigue",
    "url": "www.pyrenees-refuges.com/fr/affiche.php?numenr=495",
    "description": "petite cabane 2 3 places pas de cheminee juste un bas flanc sympathique tout de meme ",
    "photoUrl": "https://www.pyrenees-refuges.com/media/photo/495_1555545587.jpg",
    "alt": 1700,
    "category": "sheld"
  },
  {
    "lat": 0.83,
    "lng": 42.776667,
    "name": "Cabane des Artiguetes",
    "url": "www.pyrenees-refuges.com/fr/affiche.php?numenr=787",
    "description": "cabane en bord de route un peu poussiereuse mais en bon état avec une partie couchage à l'étage le refuge qui est un peu plus haut apres le pont est prive porte soudee acces fos bossost es bordes gt arros a gauche ",
    "photoUrl": "https://www.pyrenees-refuges.com/media/photo/artiguetes3.jpg",
    "alt": 1580,
    "category": "sheld"
  },
  {
    "lat": 0.97405,
    "lng": 42.858476,
    "name": "Cabane Artigou",
    "url": "www.pyrenees-refuges.com/fr/affiche.php?numenr=535",
    "description": "petite cabane en bon état sol en terre bois table bancs pas vu de source beaucoup d affaires berger ",
    "photoUrl": "https://www.pyrenees-refuges.com/media/photo/20220327_609356.jpg",
    "alt": 1599,
    "category": "sheld"
  },
  {
    "lat": -0.016222,
    "lng": 42.9365848,
    "name": "Cabane d'Artigar\u00e9s",
    "url": "www.pyrenees-refuges.com/fr/affiche.php?numenr=951",
    "description": "pas de couchage un banc et une table prennent toute la place dans la cabane cabane en excellent etat bien isolee bois a disposition ruisseau a 5mn des planches madriers et sacs de sel ont été disposes au fond de la cabane ",
    "photoUrl": "https://www.pyrenees-refuges.com/media/photo/1003_1211618799.jpg",
    "alt": 1530,
    "category": "sheld"
  },
  {
    "lat": 0.75911666,
    "lng": 42.546667,
    "name": "Cabane d'Artigalonga",
    "url": "www.pyrenees-refuges.com/fr/affiche.php?numenr=860",
    "description": "pas de table ni bancs ni bat flanc frequentee par les chasseurs assez sale eau bois cheminee situé apres le tunel de vielha piste au depart de senet",
    "photoUrl": "https://www.pyrenees-refuges.com/media/photo/artigalonga.jpg",
    "alt": 1715,
    "category": "sheld"
  },
  {
    "lat": 0.7061111,
    "lng": 42.679722,
    "name": "Refuge Artiga de Lin",
    "url": "www.pyrenees-refuges.com/fr/affiche.php?numenr=774",
    "description": "refuge a cote du parking surement très populaire en été 2 parties avec cheminees dont une de 3 places ",
    "photoUrl": "https://www.pyrenees-refuges.com/media/photo/artiga_lin2.jpg",
    "alt": 1465,
    "category": "sheld"
  },
  {
    "lat": 1.12018104,
    "lng": 42.7976911,
    "name": "Cabane de l'Artigues",
    "url": "www.pyrenees-refuges.com/fr/affiche.php?numenr=921",
    "description": "l abri d artigues se trouve 50m au sud de la cabane ONF fermée dommage qu il soit envahi par la vegetation et menace ruine car c est le seul endroit ou s abriter en cas d intemperie table d angle en pierre rare brlt brgt lt brgt brcabane forestiere fermée aux randonneurs deux autres cabanes dans les environs la viellle cabane ruinee 50m au sud avec un coin amenagee ou on peut s abriter voir y dormir et une cabane sans doute privee non visitee un peu en aval et de l autre cote du torrent brlt brgt ",
    "photoUrl": "https://www.pyrenees-refuges.com/media/photo/921_1219649957.jpg",
    "alt": 1053,
    "category": "sheld"
  },
  {
    "lat": 0.77451536808396,
    "lng": 42.849556529592,
    "name": "Cabane du Courrau d'Artigue",
    "url": "www.pyrenees-refuges.com/fr/affiche.php?numenr=33",
    "description": "cabane ouverte propre 4 lits metal superposes mezzanine 3 places table bancs ruisseau bois de hetre brdeconseillee en periode de chasse brpas très loin de la route du val d aran 1 h apres melles premier chemin a gauche apres ancien poste de douanes en dessous de la cabane de salontere",
    "photoUrl": "https://www.pyrenees-refuges.com/media/photo/15924304075005.jpg",
    "alt": 1170,
    "category": "sheld"
  },
  {
    "lat": 1.01625884,
    "lng": 42.8296472,
    "name": "Cabane de l'Artigue",
    "url": "www.pyrenees-refuges.com/fr/affiche.php?numenr=757",
    "description": "petite cabane en pierre située sur le GR10 une heure avant d arriver au pla de la lau refaite a neuf et assez rustique pas de table ni de banc un grand bat flanc pour 4 occupe tout l espace bois a 5mn abreuvoir à proximité avec eau qui coule doucement la cheminee est un simple foyer avec un trou plus haut dans le mur pour evacuer la fumee peu servir de depannage en cas de besoin",
    "photoUrl": "https://www.pyrenees-refuges.com/media/photo/20230302_174033.jpeg",
    "alt": 1420,
    "category": "sheld"
  },
  {
    "lat": 1.3862943297799,
    "lng": 42.71218201254,
    "name": "Cabane Artigue",
    "url": "www.pyrenees-refuges.com/fr/affiche.php?numenr=494",
    "description": "cabane agreable 4 couchages sur un bat flanc qui sert aussi de table 2 bancs source a cote bois à proximité la cheminee tire bien ",
    "photoUrl": "https://www.pyrenees-refuges.com/media/photo/20210714_950980.jpg",
    "alt": 1533,
    "category": "sheld"
  },
  {
    "lat": 0.69235324859619,
    "lng": 42.862863960846,
    "name": "Cabane Artigue",
    "url": "www.pyrenees-refuges.com/fr/affiche.php?numenr=426",
    "description": "belle cabane située dans un clairiere accueillante et l eau coulait en octobre malgre une periode de secheresse ",
    "photoUrl": "https://www.pyrenees-refuges.com/media/photo/15731397851540.jpg",
    "alt": 1350,
    "category": "sheld"
  },
  {
    "lat": 1.93182771,
    "lng": 42.71831319,
    "name": "Cabane d'Ascou",
    "url": "www.pyrenees-refuges.com/fr/affiche.php?numenr=35",
    "description": "",
    "photoUrl": "https://www.pyrenees-refuges.com/media/photo/ascou.jpg",
    "alt": 1323,
    "category": "sheld"
  },
  {
    "lat": -0.054722,
    "lng": 42.768889,
    "name": "Cabane d'Asp\u00e9",
    "url": "www.pyrenees-refuges.com/fr/affiche.php?numenr=457",
    "description": "cabane detruite durant l hiver 2014 2015 reconstruction ",
    "photoUrl": "https://www.pyrenees-refuges.com/media/photo/457_1431517687.jpg",
    "alt": 1848,
    "category": "sheld"
  },
  {
    "lat": -0.112375,
    "lng": 42.628728,
    "name": "L'Atalaya",
    "url": "www.pyrenees-refuges.com/fr/affiche.php?numenr=809",
    "description": "refuge restaurant de torla ",
    "photoUrl": "https://www.pyrenees-refuges.com/media/photo/refugesansphoto.jpg",
    "alt": 1033,
    "category": "refuge"
  },
  {
    "lat": -1.074724,
    "lng": 42.041534,
    "name": "Refuge non gard\u00e9 Aterbea",
    "url": "www.pyrenees-refuges.com/fr/affiche.php?numenr=1138",
    "description": "situé au bord de la route rd 18 100 m au sud du carrefour avec la route rd 301 brbas flanc d'une dizaine de personnes table et bancs brn y etant passe qu en journee et n y ayant pas sejourne je ne peux donner d'autres renseignements",
    "photoUrl": "https://www.pyrenees-refuges.com/media/photo/1138_1267688564.jpg",
    "alt": 990,
    "category": "sheld"
  },
  {
    "lat": -0.585833,
    "lng": 42.823611,
    "name": "Cabane de Atsout",
    "url": "www.pyrenees-refuges.com/fr/affiche.php?numenr=1003",
    "description": "cabane au dessus de la cabane de grosse et comme celle ci elle est desormais fermée du moins lors de notre passage porte en fer et verrou nous avons du redescendre a la cabanne de caillabere qui est bien ouverte",
    "photoUrl": "https://www.pyrenees-refuges.com/media/photo/1003_1447626814.jpg",
    "category": "sheld"
  },
  {
    "lat": 0.14355469,
    "lng": 42.8402607,
    "name": "Refuge du Lac d'Aubert",
    "url": "www.pyrenees-refuges.com/fr/affiche.php?numenr=36",
    "description": "table bancs et couverture c est un refuge d hiver il est fermé en été proximite parking oblige robinet sur le cote accessible l'été ",
    "photoUrl": "https://www.pyrenees-refuges.com/media/photo/36_1230745601.jpg",
    "alt": 2160,
    "category": "sheld"
  },
  {
    "lat": 0.7319972,
    "lng": 42.682614,
    "name": "Cabane d'Auba",
    "url": "www.pyrenees-refuges.com/fr/affiche.php?numenr=1018",
    "description": "située dans le val d aran vallon de artiga de linbrmenace de tomber en ruine",
    "photoUrl": "https://www.pyrenees-refuges.com/media/photo/refugesansphoto.jpg",

    "category": "sheld"
  },
  {
    "lat": 0.692678,
    "lng": 42.697367,
    "name": "Cabana dera montanha d'Aubert",
    "url": "www.pyrenees-refuges.com/fr/affiche.php?numenr=1575",
    "description": "cabane qui semble ouverte a confirmer par une visite ",
    "photoUrl": "https://www.pyrenees-refuges.com/media/photo/2004_1547058779.jpg",
    "alt": 1718,
    "category": "sheld"
  },
  {
    "lat": 0.82755,
    "lng": 42.83917,
    "name": "Cabane de Aueran",
    "url": "www.pyrenees-refuges.com/fr/affiche.php?numenr=1041",
    "description": "située a l ouest du col d aueran juste au dessus de la forêt reservee au berger en été mais hors saison cabane ouverte située 300m a l ouest de l ancienne cabane aujourd hui en ruine la cheminee tire très mal ",
    "photoUrl": "https://www.pyrenees-refuges.com/media/photo/20221112_434647.jpg",
    "alt": 1616,
    "category": "sheld"
  },
  {
    "lat": 0.804444,
    "lng": 42.85138899,
    "name": "Cabane Melloux",
    "url": "www.pyrenees-refuges.com/fr/affiche.php?numenr=512",
    "description": "cabane en bon état ouverte bois capacite de couchage environ 6 personnes été comme hiver",
    "photoUrl": "https://www.pyrenees-refuges.com/media/photo/20221112_268034.jpg",
    "alt": 1410,
    "category": "sheld"
  },
  {
    "lat": -0.4656202,
    "lng": 42.879876,
    "name": "Cabane d'Aule",
    "url": "www.pyrenees-refuges.com/fr/affiche.php?numenr=38",
    "description": "table bancs occupe l'été par un berger",
    "photoUrl": "https://www.pyrenees-refuges.com/media/photo/38_1292446793.jpg",
    "alt": 1711,
    "category": "sheld"
  },
  {
    "lat": 1.1075161099543,
    "lng": 42.783677163116,
    "name": "Cabane d'Aula",
    "url": "www.pyrenees-refuges.com/fr/affiche.php?numenr=37",
    "description": "refuge construit en 1957 appele aussi refuge daniel tourte du nom d'un des 3 alpinistes ayant devisse de la face noire du valier renovation de la charpente et du toit uniquement en 2013 2014 source torrent situé derriere le refuge a 50m prevoir pastilles micropure bois vert en contrebas a 15 mn a pied de la cabane cabane nettoyee et renovee les 1 et 2 juin 2019 sous l egide de l association les amis gr distes GR10 fr 12 couchages complets sont disponibles avec matelas housse et couverture voire meme traversin pour une partie 6 en bas sur des lits superposes metalliques et 6 en haut avec une cantine contenant les couvertures du haut une cantine en bas avec de la vaisselle a nettoyer et ranger ",
    "photoUrl": "https://www.pyrenees-refuges.com/media/photo/16810415295940.jpeg",
    "alt": 1550,
    "category": "sheld"
  },
  {
    "lat": 0.24731417,
    "lng": 42.8560891,
    "name": "Cabane Auloueilh",
    "url": "www.pyrenees-refuges.com/fr/affiche.php?numenr=470",
    "description": "tres chouette cabane avec un couchage sur deux niveaux elle voit peu le soleil l hiver a noter que le ressaut avant l arrivee a la cabane est expose aux avalanches cheminee interdite d usage et interdiction de ramassage de bois reserve naturelle regionale d aulon une table un banc une partie fermée sans doute pour le berger ",
    "photoUrl": "https://www.pyrenees-refuges.com/media/photo/470_1284576785.jpg",
    "alt": 1853,
    "category": "sheld"
  },
  {
    "lat": -0.6349,
    "lng": 42.89262999,
    "name": "Cabane d'Aumet",
    "url": "www.pyrenees-refuges.com/fr/affiche.php?numenr=1310",
    "description": "cabane proche du parking d aumet 200m fermée l hiver et occupee l'été par un berger ",
    "photoUrl": "https://www.pyrenees-refuges.com/media/photo/2001_1431708707.jpg",
    "alt": 1138,
    "category": "sheld"
  },
  {
    "lat": -0.63451,
    "lng": 42.89128,
    "name": "Abri Aumet",
    "url": "www.pyrenees-refuges.com/fr/affiche.php?numenr=1311",
    "description": "abri servant a la traite en été compose d'un sol en beton trois murs et un toit en bon état ",
    "photoUrl": "https://www.pyrenees-refuges.com/media/photo/2002_1431709063.jpg",
    "alt": 1150,
    "category": "sheld"
  },
  {
    "lat": -0.16819614563863,
    "lng": 42.905126696443,
    "name": "Cabane d'Aum\u00e8de",
    "url": "www.pyrenees-refuges.com/fr/affiche.php?numenr=1743",
    "description": "cabane metallique à visiter pour plus d'informations située a 1920m aux sources du ruisseau d aumede au nord du moun ne pic de monne et a l ouest du pic wilson ",
    "photoUrl": "https://www.pyrenees-refuges.com/media/photo/16824291417441.jpeg",
    "alt": 1920,
    "category": "sheld"
  },
  {
    "lat": -0.7417875,
    "lng": 42.0533061,
    "name": "Cabane d'Auriste",
    "url": "www.pyrenees-refuges.com/fr/affiche.php?numenr=39",
    "description": "couchage sous toiture mais acces sans echelle assez acrobatique cabane très propre cheminee fonctionnelle avec robinet d eau potable ",
    "photoUrl": "https://www.pyrenees-refuges.com/media/photo/39_1550091327.jpg",
    "alt": 908,
    "category": "sheld"
  },
  {
    "lat": 1.8437504667945,
    "lng": 42.623349412297,
    "name": "Cabane Auriol",
    "url": "www.pyrenees-refuges.com/fr/affiche.php?numenr=1525",
    "description": "cabane située a 1940m sous l'étang d auriol a 5 mn a l est du sentier pas reportee sur les cartes ",
    "photoUrl": "https://www.pyrenees-refuges.com/media/photo/2000_1535192247.jpg",
    "alt": 1940,
    "category": "sheld"
  },
  {
    "lat": -0.12856382523458,
    "lng": 42.938642705482,
    "name": "Cabane d'Aurios ou de la Touette",
    "url": "www.pyrenees-refuges.com/fr/affiche.php?numenr=1142",
    "description": "cabane a 2015m marquee sur la carte située sous le clot de la touette itineraire nord du cabaliros une partie ouverte sans aucun mobilier pas de cheminee ni de bois pas de bas flancs source potable à proximité",
    "photoUrl": "https://www.pyrenees-refuges.com/media/photo/1142_1478431503.jpg",
    "alt": 2015,
    "category": "sheld"
  },
  {
    "lat": 1.5515511439518,
    "lng": 42.71228055285,
    "name": "Cabane d'Auruzan",
    "url": "www.pyrenees-refuges.com/fr/affiche.php?numenr=341",
    "description": "cabane appartenant a la mairie de siguer elle est laissee ouverte hors saison de juin a septembre inclus elle est est louee et occupee par le groupement pastoral de siguer neych merci donc a part en cas d urgence de ne pas l occuper vraiment petite 2 couchages stricts avec matelas agencee comme dans un camping car ",
    "photoUrl": "https://www.pyrenees-refuges.com/media/photo/20211219_106078.jpg",
    "alt": 1620,
    "category": "sheld"
  },
  {
    "lat": 1.1677531511688,
    "lng": 42.773585625455,
    "name": "Cabane de Auzut",
    "url": "www.pyrenees-refuges.com/fr/affiche.php?numenr=1077",
    "description": "cabane ouverte il y a une vielle inscription sur la porte cette cabane t appartient prends en soin cabane a l ancienne propre sans exces spacieuse et sympathique update renove a lete 2022",
    "photoUrl": "https://www.pyrenees-refuges.com/media/photo/20230328_485028.jpeg",
    "alt": 1325,
    "category": "sheld"
  },
  {
    "lat": 0.09825,
    "lng": 42.612883,
    "name": "Obsevatorio de Aves",
    "url": "www.pyrenees-refuges.com/fr/affiche.php?numenr=1507",
    "description": "parc national d ordesa et du mont perdu observatoire en bois abri ouvert vue sur le site de nourrissage des gypaetes barbus vautours fauves et vautours percnopteres egalement presents bancs en bois et panneaux d explications sur la faune en espagnol acces depuis escuain parking utiliser la piste a pied sur 2 5km pour ne pas deranger les oiseaux en journee passer par le sentier vers puente de los mallos ne pas le traverser et revenir a gauche en direction de observatorio de aves cuello viceto l abri sera alors cache derriere les buis ",
    "photoUrl": "https://www.pyrenees-refuges.com/media/photo/2000_1531992634.jpg",
    "alt": 1500,
    "category": "sheld"
  },
  {
    "lat": 0.15187313,
    "lng": 42.8753848,
    "name": "Cabane Aygues-Cluses",
    "url": "www.pyrenees-refuges.com/fr/affiche.php?numenr=40",
    "description": "cabane limite propre il y a une source qui se trouve sur la rive sud du lac de coueyla gran a 3 metres du rivage elle sort de dessous une grosse pierre plate ",
    "photoUrl": "https://www.pyrenees-refuges.com/media/photo/40_1229075716.jpg",
    "alt": 2150,
    "category": "sheld"
  },
  {
    "lat": 0.1011055,
    "lng": 42.013457,
    "name": "Cabane las Aygues",
    "url": "www.pyrenees-refuges.com/fr/affiche.php?numenr=1564",
    "description": "cabane metalique plancher en bois petite table et 4 chaises pas de cheminee source à proximité troupeaux l'été ",
    "photoUrl": "https://www.pyrenees-refuges.com/media/photo/1564_1548289963.jpg",
    "alt": 1378,
    "category": "sheld"
  },
  {
    "lat": 0.175,
    "lng": 42.966,
    "name": "Cabane d'Aygue Rouye",
    "url": "www.pyrenees-refuges.com/fr/affiche.php?numenr=883",
    "description": "cabane en pierre seche restaurée dont une partie fermée pour le berger ensemble humide bas flanc en pente table abritee sous un porche lac d aygues rouye a cote ",
    "photoUrl": "https://www.pyrenees-refuges.com/media/photo/ayguesrouye3.jpg",
    "alt": 1620,
    "category": "sheld"
  },
  {
    "lat": 1.96831382,
    "lng": 42.5639423,
    "name": "Refuge des Fr\u00e9res Aymard",
    "url": "www.pyrenees-refuges.com/fr/affiche.php?numenr=147",
    "description": " leau à proximité du llat nest pas necessairement potable presence de troupeaux de vaches et de chevaux labri est visible de loin de la rive sud opposee cheminee et banc dans une premiere piece deux autres pièces très sombres le tout est très humide bois et eau à proximité necessite une restauration urgente ",
    "photoUrl": "https://www.pyrenees-refuges.com/media/photo/frereaymard2.jpg",
    "alt": 2180,
    "category": "sheld"
  },
  {
    "lat": -0.4698797,
    "lng": 42.85560929,
    "name": "Cabane Col Long Dayous d'En Haut",
    "url": "www.pyrenees-refuges.com/fr/affiche.php?numenr=749",
    "description": "",
    "photoUrl": "https://www.pyrenees-refuges.com/media/photo/ayous_haut.jpg",
    "alt": 1720,
    "category": "sheld"
  },
  {
    "lat": -0.49120921091925,
    "lng": 42.848455313443,
    "name": "Refuge d'Ayous",
    "url": "www.pyrenees-refuges.com/fr/affiche.php?numenr=41",
    "description": "ouverture du refuge du 17 mai au 8 octobre 2023 la capacite du refuge d ayous est de 47 places reparties en dortoirs les randonneurs qui ont reserve leur demi pension sont accueillis et places dans les dortoirs vers 17h drap housse couverture oreiller et taie doreiller seront a votre disposition ainsi que des savates vous devez vous munir dun drap personnel pour votre couchage attention a partir de mai 2023 le parking de bious artigues sera payant ",
    "photoUrl": "https://www.pyrenees-refuges.com/media/photo/41_1292446579.jpg",
    "alt": 1980,
    "category": "refuge"
  },
  {
    "lat": -0.4680365,
    "lng": 42.8553881,
    "name": "Cabane Col Long Dayous d'En Bas",
    "url": "www.pyrenees-refuges.com/fr/affiche.php?numenr=427",
    "description": "",
    "photoUrl": "https://www.pyrenees-refuges.com/media/photo/427_1292597580.jpg",
    "alt": 1700,
    "category": "sheld"
  },