[
  {
    "name": "Refuge Jeandel",
    "category": "refuge",
    "alt": 1670,
    "phone": "+33559661446",
    "description": "Le refuge est ouvert de fin mai à mi-octobre, mais cela peut varier en fonction de l'enneigement. Durant cette période, le gardien vous accueille après une journée de randonnée, vous préparera un bon repas chaud et convivial le soir ainsi que le petit-déjeuner (demi-pension). Il y à également un espace pour les campeurs. Nous proposons aussi des piques-niques à emporter et du snack à toutes heures et disposons d'une petite alimentation afin de ravitailler les randonneurs. Modes de paiement : chèques/espèces uniquement.",
    "url": "refugejeandel.com",
    "lng": -0.74932356455934,
    "lat": 42.978310374425,
    "photoUrl": "https://raw.githubusercontent.com/matvdg/Rando/master/photos/jeandel.heic"
  },
  {
    "name": "Refuge d'Ayous",
    "category": "refuge",
    "alt": 1980,
    "phone": "+33559053700",
    "description": "Attachés à valoriser les circuits courts, la plupart de nos produits sont BIO, issus de la vallée ou de la région. Nous aimons vous faire profiter des saveurs locales et de nos spécialités.",
    "url": "refuge-ayous.fr",
    "lng": -0.49120921091925,
    "lat": 42.848455313443,
    "photoUrl": "https://raw.githubusercontent.com/matvdg/Rando/master/photos/ayous.heic"
  },
  {
    "name": "Refuge des Oulettes de Gaube",
    "category": "refuge",
    "alt": 2652,
    "phone": "+3397477652",
    "description": "Le refuge des Oulettes idéalement situé au fond de la vallée de Gaude au pied de la face nord du Vignemale se révèle être un camp de base pour les pratiques de montagne. Modes de paiement: CB, chèques et espèces acceptés.",
    "url": "refugeoulettesdegaube.ffcam.fr",
    "lat": 42.779177,
    "lng": -0.124149,
    "photoUrl": "https://raw.githubusercontent.com/matvdg/Rando/master/photos/gaube.heic"
  },
  {
    "name": "Refuge de Bayssellance",
    "category": "refuge",
    "alt": 2651,
    "phone": "+33559053700",
    "description": "Situé sur le massif du Vignemale, avec une vue imprenable sur le cirque de Gavarnie, le refuge de Bayssellance est le plus haut gardé des Pyrénées.  Modes de paiement : chèques/espèces uniquement.",
    "url": "refugebayssellance.ffcam.fr",
    "lat": 42.8485,
    "lng": -0.49139,
    "photoUrl": "https://raw.githubusercontent.com/matvdg/Rando/master/photos/bayssellance.heic"
  },
  {
    "name": "Refuge de l'Oule",
    "category": "refuge",
    "alt": 1818,
    "phone": "+33562984862",
    "description": "L'auberge est située à 1.820 mètres d'altitude sur les bords du lac de l'Oule aux portes de la réserve naturelle du Néouvielle, et à l'extrême ouest de la station de ski de Saint-Lary-Soulan.",
    "url": "saintlary-vacances.com",
    "lat": 42.824117,
    "lng": 0.207312,
    "photoUrl": "https://raw.githubusercontent.com/matvdg/Rando/master/photos/oule.heic"
  },
  {
    "name": "Refuge du Lac d'Oô",
    "category": "refuge",
    "alt": 1531,
    "phone": "+33561791229",
    "description": "Refuge Auberge de Montagne (1507 m) 25 couchage, bar et restauration vue sur le Lac d'Oô",
    "url": "lacdoo.cla.fr",
    "lat": 42.744684,
    "lng": 0.490771,
    "photoUrl": "https://raw.githubusercontent.com/matvdg/Rando/master/photos/oo.heic"
  },
  {
    "name": "Refuge d'Espingo",
    "category": "refuge",
    "alt": 1967,
    "phone": "+33561792001",
    "description": "Le refuge d'Espingo est de par sa situation, un refuge idéal pour la découverte du milieu montagnard. Bordé par les lacs d'Espingo et de Saoussat, il est le théâtre de beaucoup d'acteurs alpinistes, pêcheurs, randonneurs et amis de la nature. Mode de paiement : chèques/espèces uniquement.",
    "url": "refugedespingo.ffcam.fr",
    "lng": 0.49975734,
    "lat": 42.73073269,
    "photoUrl": "https://raw.githubusercontent.com/matvdg/Rando/master/photos/espingo.heic"
  },
  {
    "name": "Refuge Jacques Husson",
    "category": "refuge",
    "alt": 1965,
    "phone": "+33561967373",
    "description": "Au coeur du PNR des Pyrénées Ariégeoises, le refuge est situé au bord de l'étang d'Araing et au pied du Pic du Crabère, magnifique belvédère sur les plus hauts sommets Pyrénéens. Mode de paiement : chèques/espèces uniquement.",
    "url": "refugeetangdaraing.ffcam.fr",
    "lng": 0.873333,
    "lat": 42.834444,
    "photoUrl": "https://raw.githubusercontent.com/matvdg/Rando/master/photos/araing.heic"
  },
  {
    "name": "Refuge des étangs de Bassies",
    "category": "refuge",
    "alt": 1650,
    "phone": "+33689406500",
    "description": "C'est au coeur des Pyrénées Ariégeoises, près de l'Andorre, que le pays d'Auzat et du Vicdessos vous accueille, avec ses nombreuses vallées dont celle de Bassiès.",
    "url": "bassies.free.fr",
    "lat": 42.765233,
    "lng": 1.41378,
    "photoUrl": "https://raw.githubusercontent.com/matvdg/Rando/master/photos/bassies.heic"
  },
  {
    "name": "Refuge de Rulhe",
    "category": "refuge",
    "alt": 2185,
    "phone": "+33674245071",
    "description": "Au coeur des estives de la haute vallée de l’Aston, le refuge du Rulhe est le plus accessible des refuges ariégeois. Il se trouve aussi à la croisée des grands chemins de randonnée : le Rando, le GR Transfrontalier, le Tour des montagnes d’Ax et la HRP. Des accès de tout niveau permettent de s’y rendre en quelques heures, à la demi-journée ou à la journée. Vallée d'Aston, près des étangs d'Estagnol, Joclar et Fontargente.  Modes de paiement : chèques/espèces uniquement.",
    "url": "rulhe.com",
    "lat": 42.637848,
    "lng": 1.72575,
    "photoUrl": "https://raw.githubusercontent.com/matvdg/Rando/master/photos/rulhe.heic"
  },
  {
    "name": "Refuge des Bésines",
    "category": "refuge",
    "alt": 2106,
    "phone": "+33988773528",
    "description": "Situé au coeur d'un site à la fois minéral et boisé, à la frontière entre l'Ariège et les Pyrénées-Orientales, le refuge des Bésines jouit d'une position particulièrement favorable pour la découverte des hautes terres catalanes et des vallées profondes.  Modes de paiement : chèques/espèces uniquement.",
    "url": "refugedesbesines.ffcam.fr",
    "lat": 42.603872,
    "lng": 1.868194,
    "photoUrl": "https://raw.githubusercontent.com/matvdg/Rando/master/photos/besines.heic"
  },
  {
    "name": "Refuge du Ras de la Carança",
    "category": "refuge",
    "alt": 1840,
    "phone": "+33988667381",
    "description": "Que vous veniez des gorges, uniques avec leur chemin en balcon taillé dans la roche et leurs passerelles, que vous randonniez sur le Rando vers Mantet ou Planès, ou que le but de votre balade soit les lacs de la Carança ou Nuria, vous y trouverez accueil, gîte et couvert.",
    "url": "www.refugelacaranca.com",
    "lng": 2.2237656535803,
    "lat": 42.464428106127,
    "photoUrl": "https://raw.githubusercontent.com/matvdg/Rando/master/photos/caranca.heic"
  },
  {
    "name": "Refuge de Mariailles",
    "category": "refuge",
    "alt": 1700,
    "phone": "+33468055799",
    "description": "Le refuge de Mariailles, niché au cœur du Massif du Canigou (catalan : Canigó), est un lieu de convivialité et de partage. Au milieu de la nature et des paysages grandioses, vous trouverez le dépaysement, l'isolement, le confort, le repos et le calme. Modes de paiement : chèques/espèces uniquement.",
    "url": "refugedemariailles.fr",
    "lng": 2.40753887,
    "lat": 42.50134649,
    "photoUrl": "https://raw.githubusercontent.com/matvdg/Rando/master/photos/mariailles.heic"
  },
  {
    "name": "Refuge des Cortalets",
    "category": "refuge",
    "alt": 2150,
    "phone": "+33468963619",
    "description": "Étape sur la traversée des Pyrénées, le refuge des Cortalets situé à 2150 m donne accès au sommet du Canigou à 2784m d'altitude. Modes de paiement: CB, chèques et espèces acceptés.",
    "url": "refugedescortalets.ffcam.fr",
    "lat": 42.534241,
    "lng": 2.464639,
    "photoUrl": "https://raw.githubusercontent.com/matvdg/Rando/master/photos/cortalets.heic"
  },
  {
    "name": "Cascade de Lutour",
    "category": "waterfall",
    "description": "La cascade de Lutour est une cascade naturelle des Pyrénées située à 1 096 m d'altitude.",
    "alt": 1096,
    "lat": 42.870042,
    "lng": -0.105808,
    "photoUrl": "https://raw.githubusercontent.com/matvdg/Rando/master/photos/lutour.heic"
  },
  {
    "name": "Cascade d'Arcouzan",
    "category": "waterfall",
    "description": "La cascade d'Arcouzan est une cascade naturelle des Pyrénées située à 1 065 m d'altitude.",
    "alt": 1065,
    "lat": 42.800592,
    "lng": 1.118023,
    "photoUrl": "https://raw.githubusercontent.com/matvdg/Rando/master/photos/arcouzan.heic"
  },
  {
    "name": "Cascade du Fouillet",
    "category": "waterfall",
    "description": "La cascade du Fouillet est une cascade naturelle des Pyrénées située à 1 321 m d'altitude. Elle est dans le périmètre du parc naturel régional des Pyrénées ariégeoises.",
    "alt": 1321,
    "lat": 42.765317,
    "lng": 1.328549,
    "photoUrl": "https://raw.githubusercontent.com/matvdg/Rando/master/photos/fouillet.heic"
  },
  {
    "name": "Cascade d'Ars",
    "category": "waterfall",
    "description": "La cascade d'Ars est une cascade naturelle des Pyrénées située dans le Couserans en Ariège, à 1 380 m d'altitude. Elle est dans le périmètre du parc naturel régional des Pyrénées ariégeoises.",
    "alt": 1404,
    "lat": 42.762943,
    "lng": 1.361437,
    "photoUrl": "https://raw.githubusercontent.com/matvdg/Rando/master/photos/ars.heic"
  },
  {
    "name": "Cascade de Gavarnie",
    "category": "waterfall",
    "description": "La cascade de Gavarnie, également appelée grande cascade de Gavarnie, est une chute d'eau du cirque de Gavarnie, cirque glaciaire localisé dans la partie centrale des Pyrénées françaises (département des Hautes-Pyrénées) et appartenant au parc national des Pyrénées. Elle chute de 422m !",
    "alt": 2200,
    "lat": 42.69478285091007,
    "lng": -0.005405699815326734,
    "photoUrl": "https://raw.githubusercontent.com/matvdg/Rando/master/photos/cascadegavarnie.jpeg"
  },
  {
    "name": "Mont Valier",
    "category": "peak",
    "description": "Le mont Valier est un sommet de 2 838 m situé dans les Pyrénées ariégeoises, en Couserans, dominant toute la vallée d’Angouls et son torrent, à faible distance de la frontière espagnole",
    "alt": 2838,
    "lat": 42.799284,
    "lng": 1.085288,
    "photoUrl": "https://raw.githubusercontent.com/matvdg/Rando/master/photos/valier.heic"
  },
  {
    "name": "Pic de Montcalm",
    "category": "peak",
    "description": "Le pic du Montcalm est un sommet des Pyrénées françaises culminant à 3 077 mètres et situé sur la commune d'Auzat dans le département de l'Ariège en région Occitanie.",
    "alt": 3077,
    "lat": 42.672928,
    "lng": 1.406448,
    "photoUrl": "https://raw.githubusercontent.com/matvdg/Rando/master/photos/montcalm.heic"
  },
  {
    "name": "Pic du Canigou",
    "category": "peak",
    "description": "Le pic du Canigou est le haut sommet oriental de la chaîne des Pyrénées, sur le massif du Canigou. Il est situé dans le Conflent, département des Pyrénées-Orientales, et culmine à 2 784 mètres d'altitude.",
    "alt": 2784,
    "lat": 42.520241,
    "lng": 2.456527,
    "photoUrl": "https://raw.githubusercontent.com/matvdg/Rando/master/photos/canigou.heic"
  },
  {
    "name": "Pic de Vignemale",
    "category": "peak",
    "description": "Le Vignemale, plus précisément la pique Longue, est un sommet des Pyrénées, situé à la frontière franco-espagnole, dans le massif du Vignemale. Avec ses 3 298 m, c'est le point culminant des Pyrénées françaises, de la région Occitanie et de l'ancienne province de Gascogne.",
    "alt": 3298,
    "lat": 42.774453,
    "lng": -0.146813,
    "photoUrl": "https://raw.githubusercontent.com/matvdg/Rando/master/photos/vignemale.heic"
  },
  {
    "name": "Refuge d'En Beys",
    "category": "refuge",
    "alt": 1970,
    "phone": "+33561642424",
    "description": "Le refuge d'en Beys est un refuge de montagne des Pyrénées, situé en Ariège, dans la réserve nationale de faune sauvage d'Orlu sur le bord des étangs d'en Beys, à 1 970 m d'altitude, à la frontière entre Haute-Ariège et Cerdagne. Modes de paiement : chèques/espèces uniquement.",
    "url": "refuge-enbeys.com/fr/",
    "lng": 1.94353579,
    "lat": 42.6263523,
    "photoUrl": "https://raw.githubusercontent.com/matvdg/Rando/master/photos/enbeys.heic"
  },
  {
    "name": "Refuge de l'Étang du Pinet",
    "category": "refuge",
    "alt": 2242,
    "phone": "+33561648081",
    "description": "Le refuge du Pinet est un refuge situé sur la commune d'Auzat, dans les Pyrénées, à 2 240 mètres d'altitude. Il est gardé de début juin à fin septembre. Modes de paiement : chèques/espèces uniquement.",
    "url": "refugeetangpinet.ffcam.fr",
    "lat": 42.691491,
    "lng": 1.396565,
    "photoUrl": "https://raw.githubusercontent.com/matvdg/Rando/master/photos/pinet.heic"
  },
  {
    "name": "Refuge les Estagnous",
    "category": "refuge",
    "alt": 2246,
    "phone": "+33561967622",
    "description": "Le refuge a été construit en 1912 et il est gardé depuis 1976. Il  appartient à la Communauté des Communes Couserans Pyrénées, il est situé sur la commune de Bordes/Uchentein dans la Réserve domaniale du Mont Valier au cœur du Parc Naturel Régional des Pyrénées Ariégeoises. Modes de paiement : chèques/espèces uniquement.",
    "url": "refuge-les-estagnous.com",
    "lat": 42.798014,
    "lng": 1.072662,
    "photoUrl": "https://raw.githubusercontent.com/matvdg/Rando/master/photos/estagnous.heic"
  },
  {
    "name": "Pic de la Munia",
    "category": "peak",
    "description": "Le pic de la Munia est le point culminant de l'ensemble des trois cirques de Troumouse, Barroude et Barrosa. Situé à la frontière entre la France (département des Hautes-Pyrénées) et l'Espagne (province de Huesca).",
    "alt": 3133,
    "lat": 42.717423,
    "lng": 0.133247,
    "photoUrl": "https://raw.githubusercontent.com/matvdg/Rando/master/photos/munia.heic"
  },
  {
    "name": "Pic d'Estats",
    "category": "peak",
    "description": "La Pique d'Estats (espagnol et catalan : Pica d'Estats) est un sommet des Pyrénées situé sur la frontière franco-espagnole, dans le département de l'Ariège côté français et la comarque catalane de Pallars Sobirà côté espagnol. Avec 3 143 mètres d'altitude, c'est le plus haut sommet du massif du Montcalm, toutefois son ascension ne présente pas de difficulté particulière (ni escalade, ni glacier).",
    "alt": 3143,
    "lat": 42.667471,
    "lng": 1.397905,
    "photoUrl": "https://raw.githubusercontent.com/matvdg/Rando/master/photos/estats.heic"
  },
  {
    "name": "Pic de Verdaguer",
    "category": "peak",
    "description": "Le pic de Verdaguer est un sommet du massif du Montcalm. Il constitue un avant-sommet de la pique d'Estats, point culminant du secteur. De par son statut de sommet secondaire, il peut-être enchaîné avec la pique d'Estats, ou bien simplement contourné pour simplifier l'ascension au pic principal.",
    "alt": 3131,
    "lat": 42.66866,
    "lng": 1.397068,
    "photoUrl": "https://raw.githubusercontent.com/matvdg/Rando/master/photos/verdaguer.heic"
  },
  {
    "name": "Pic du Balaïtous",
    "category": "peak",
    "description": "Le pic du Balaïtous (3 144 m) est le premier pic de la chaîne dépassant l'altitude de 3 000 m depuis la côte atlantique. Il est le plus haut sommet du massif du Balaïtous, massif granitique pyrénéen se situant à la frontière entre la France et l'Espagne.",
    "alt": 3144,
    "lat": 42.838957,
    "lng": -0.290169,
    "photoUrl": "https://raw.githubusercontent.com/matvdg/Rando/master/photos/balaitous.heic"
  },
  {
    "name": "Pic Long",
    "category": "peak",
    "description": "Le pic Long est un sommet des Pyrénées françaises. Avec ses 3 192 mètres, c'est le plus haut sommet du massif du Néouvielle et le troisième plus haut sommet des Pyrénées situé entièrement en France, après la pointe Chausenque et le piton Carré.",
    "alt": 3192,
    "lat": 42.800951,
    "lng": 0.100446,
    "photoUrl": "https://raw.githubusercontent.com/matvdg/Rando/master/photos/long.heic"
  },
  {
    "name": "Pic Perdiguère",
    "category": "peak",
    "description": "Le pic Perdiguère est le plus haut sommet du massif de Perdiguère de la chaîne des Pyrénées, situé sur la frontière franco-espagnole. Il est le point culminant de la Haute-Garonne.",
    "alt": 3222,
    "lat": 42.692782,
    "lng": 0.518496,
    "photoUrl": "https://raw.githubusercontent.com/matvdg/Rando/master/photos/perdiguere.heic"
  },
  {
    "name": "Pic d'Aneto",
    "category": "peak",
    "description": "Le pic d’Aneto (jusqu'au xixe siècle : Néthou) est le point culminant de la chaîne des Pyrénées avec une altitude de 3 404 m. Il se situe en Espagne, au nord-est de l’Aragon et de la province de Huesca, dans la comarque de Ribagorce. En plein centre du Parc naturel de Posets-Maladeta, il fait partie du massif de la Maladeta dont il constitue la partie sud-est avec le Pic Russell.",
    "alt": 3404,
    "lat": 42.631847,
    "lng": 0.656474,
    "photoUrl": "https://raw.githubusercontent.com/matvdg/Rando/master/photos/aneto.heic"
  },
  {
    "name": "Le Mont Perdu",
    "category": "peak",
    "description": "Le mont Perdu (ou Monte Perdido en espagnol), situé en Espagne, proche de la frontière franco-espagnole, est le sommet le plus élevé du massif du Mont-Perdu avec 3 355 m d'altitude, sur la crête séparant les canyons d'Ordesa et de Pineta (ou Pinède). C'est le pic central des Tres Serols (en aragonais) ou Tres Hermanas (en espagnol) constituées par le Cylindre du Marboré, le Soum de Ramond, et le mont Perdu lui-même.",
    "alt": 3355,
    "lat": 42.676098,
    "lng": 0.033845,
    "photoUrl": "https://raw.githubusercontent.com/matvdg/Rando/master/photos/montperdu.heic"
  },
  {
    "name": "Pic de la Cascade Oriental",
    "category": "peak",
    "description": "Le Pic de la Cascade Oriental est un sommet des Pyrénées s'élevant à 3 161 mètres, situé dans le massif du Mont Perdu, en Espagne.",
    "alt": 3161,
    "lat": 42.69169620979089,
    "lng": 0.007625703809709135,
    "photoUrl": "https://raw.githubusercontent.com/matvdg/Rando/master/photos/cascadeoriental.jpeg"
  },
  {
    "name": "Pic du Taillon",
    "category": "peak",
    "description": "Le pic du Taillon, ou le Taillon, est un sommet situé sur la frontière franco-espagnole dans le massif du Mont-Perdu. Le pic du Taillon est considéré comme un des plus faciles 3 000 m du cirque de Gavarnie. Seule la dernière partie depuis le doigt de la Fausse Brèche est un peu raide mais jamais difficile techniquement quand il n'y à pas de neige. Le panorama depuis le sommet est grandiose, offrant une vue sur le massif du Mont-Perdu, le massif du Vignemale, le massif du Néouvielle, le Balaïtous et le pic du Midi de Bigorre par beau temps.",
    "alt": 3144,
    "lat": 42.69452471032558,
    "lng": 0.05143187077582237,
    "photoUrl": "https://raw.githubusercontent.com/matvdg/Rando/master/photos/taillon.jpeg"
  },
  {
    "name": "Pic du Marboré",
    "category": "peak",
    "description": "Le Pic du Marboré est un sommet des Pyrénées, situé à la frontière franco-espagnole, culminant à 3 248 mètres. Il se trouve dans le Parc National des Pyrénées.",
    "alt": 3248,
    "lat": 42.68405787873813,
    "lng": 0.016752486111450086,
    "photoUrl": "https://raw.githubusercontent.com/matvdg/Rando/master/photos/marbore.jpeg"
  },
  {
    "name": "Pic de l'Estaragne",
    "category": "peak",
    "description": "Le Pic de l'Estaragne est un sommet situé dans le massif du Néouvielle, culminant à 3 006 mètres, dans le département des Hautes-Pyrénées.",
    "alt": 3006,
    "lat": 42.79860037536267,
    "lng": 0.12978618188170446,
    "photoUrl": "https://raw.githubusercontent.com/matvdg/Rando/master/photos/estaragne.jpeg"
  },
  {
    "name": "Pic de Maou",
    "category": "peak",
    "description": "Le Pic de Maou est un sommet des Pyrénées françaises, situé dans le massif du Néouvielle, culminant à 3 079 mètres.",
    "alt": 3079,
    "lat": 42.79469169378407,
    "lng": 0.10584478618022287,
    "photoUrl": "https://raw.githubusercontent.com/matvdg/Rando/master/photos/maou.jpeg"
  },
  {
    "name": "Pic d'Alba",
    "category": "peak",
    "description": "Le Pico de Alba est un sommet pyrénéen de 3 107 mètres situé dans le massif de la Maladeta, en Espagne.",
    "alt": 3107,
    "lat": 42.667438807927496,
    "lng": 0.6281748026903888,
    "photoUrl": "https://raw.githubusercontent.com/matvdg/Rando/master/photos/alba.jpeg"
  },
  {
    "name": "Pic du Milieu",
    "category": "peak",
    "description": "Le pic du Milieu (en espagnol : Pico del Medio) est un sommet des Pyrénées situé sur la crête de pics de plus de 3 000 m et marque la frontière franco-espagnole. Il culmine à une altitude de 3 128 m.",
    "alt": 3128,
    "lat": 42.63948211848191,
    "lng": 0.6490985671919421,
    "photoUrl": "https://raw.githubusercontent.com/matvdg/Rando/master/photos/milieu.jpeg"
  },
  {
    "name": "Pic Maudit",
    "category": "peak",
    "description": "Le Pic Maldito est l'un des sommets majeurs du massif de la Maladeta, culminant à 3 354 mètres. Il est situé en Espagne, dans la province de Huesca.",
    "alt": 3354,
    "lat": 42.642248781372544,
    "lng": 0.6423079399093738,
    "photoUrl": "https://raw.githubusercontent.com/matvdg/Rando/master/photos/picmaudit.jpeg"
  },
  {
    "name": "Pointe d'Astorg",
    "category": "peak",
    "description": "La Punta d'Astorg est un sommet de 3 354 mètres situé dans le massif de la Maladeta, en Espagne.",
    "alt": 3354,
    "lat": 42.641235925491074,
    "lng": 0.6445861247167501,
    "photoUrl": "https://raw.githubusercontent.com/matvdg/Rando/master/photos/astorg.jpeg"
  },
  {
    "name": "Pic de la Maladeta",
    "category": "peak",
    "description": "Le pic de la Maladeta est un sommet qui culmine à 3 312 m, proche du pic d'Aneto, dans les Pyrénées espagnoles (Aragon). On croyait autrefois qu'il était plus haut que l'Aneto et les tentatives pour arriver à son sommet furent donc antérieures à celles des autres sommets du massif du même nom (Maladeta). La première ascension fut réalisée par le médecin et naturaliste Friedrich Parrot, avec le guide luchonnais Pierre Barrau, le 28 septembre 1817.",
    "alt": 3312,
    "lat": 42.64711391011713,
    "lng": 0.6393383167725701,
    "photoUrl": "https://raw.githubusercontent.com/matvdg/Rando/master/photos/maladeta.jpeg"
  },
  {
    "name": "Pic Russell",
    "category": "peak",
    "description": "Le Pico Russell est un sommet du massif de la Maladeta culminant à 3 207 mètres. Il est situé en Espagne, dans la province de Huesca.",
    "alt": 3207,
    "lat": 42.62040332181777,
    "lng": 0.6720037014140043,
    "photoUrl": "https://raw.githubusercontent.com/matvdg/Rando/master/photos/russell.jpeg"
  },
  {
    "name": "Pic de Néouvielle",
    "category": "peak",
    "description": "Le Pic de Néouvielle est un sommet des Pyrénées françaises culminant à 3 091 mètres, situé dans le département des Hautes-Pyrénées.",
    "alt": 3091,
    "lat": 42.83702927539623,
    "lng": 0.11545382119677618,
    "photoUrl": "https://raw.githubusercontent.com/matvdg/Rando/master/photos/neouvielle.jpeg"
  },
  {
    "name": "Pic de Comaloforno",
    "category": "peak",
    "description": "Le Pic de Comaloforno est le point culminant du massif de Besiberri, dans les Pyrénées espagnoles, atteignant 3 029 mètres.",
    "alt": 3029,
    "lat": 42.59181409501662,
    "lng": 0.8279489167384319,
    "photoUrl": "https://raw.githubusercontent.com/matvdg/Rando/master/photos/comaloforno.jpeg"
  },
  {
    "name": "Pic de Besiberri Sud",
    "category": "peak",
    "description": "Besiberri Sud est une montagne des Massif du Besiberri, en Catalogne, en Espagne. Situé dans les Pyrénées, il a une altitude de 3023,4 mètres au-dessus du niveau de la mer.",
    "alt": 3023,
    "lat": 42.594851725162314,
    "lng": 0.8260055603359678,
    "photoUrl": "https://raw.githubusercontent.com/matvdg/Rando/master/photos/besiberrisud.jpeg"
  },
  {
    "name": "Pic des Posets",
    "category": "peak",
    "description": "Le pic des Posets, ou pointe de Llardana est un sommet des Pyrénées espagnoles qui culmine à 3 375 mètres d'altitude (fréquemment donné aussi à 3 369 sur les cartes espagnoles). Il s'agit du point culminant du massif des Posets, deuxième plus haut massif des Pyrénées, en plein centre du parc naturel de Posets-Maladeta, et également du deuxième plus haut sommet des Pyrénées, après l'Aneto. À ce titre, il est le cinquième plus haut sommet d'Espagne, après le Teide, le Mulhacén, l'Aneto et le Veleta. Il se situe au nord-est de l’Aragon et de la province de Huesca.",
    "alt": 3375,
    "lat": 42.666280786351244,
    "lng": 0.4243581247323813,
    "photoUrl": "https://raw.githubusercontent.com/matvdg/Rando/master/photos/posets.heic"
  },
  {
    "name": "Pic des Trois-Seigneurs",
    "category": "peak",
    "description": "Le pic des Trois-Seigneurs est un sommet des Pyrénées françaises dans le département de l'Ariège en région Occitanie. Il culmine à 2 199 m d'altitude.",
    "alt": 2199,
    "lat": 42.831236,
    "lng": 1.440415,
    "photoUrl": "https://raw.githubusercontent.com/matvdg/Rando/master/photos/3seigneurs.heic"
  },
  {
    "name": "Pic du Midi de Bigorre",
    "category": "peak",
    "description": "Le pic du Midi de Bigorre est situé dans les Hautes-Pyrénées, et atteint une altitude de 2 876 mètres. Il est connu entre autres pour la présence d'un observatoire astronomique et d'un relais de télévision, installés à son sommet.",
    "alt": 2876,
    "lat": 42.937594,
    "lng": 0.140878,
    "photoUrl": "https://raw.githubusercontent.com/matvdg/Rando/master/photos/midibigorre.heic"
  },
  {
    "name": "Pic Carlit",
    "category": "peak",
    "description": "Le pic Carlit (ou Puig Carlit) est un sommet granitique des Pyrénées françaises situé dans le massif du Carlit. C'est le point culminant du département des Pyrénées-Orientales avec une altitude de 2 921 mètres. Son nom est issu du massif dans lequel il se trouve. Le climat subocéanique froid apporte de nombreuses perturbations (d’ouest à sud-ouest) et un enneigement hivernal durable au-dessus de 2 000 mètres de novembre à avril. Le fleuve Têt prend sa source sur le pic, en faisant la principale réserve d'eau du département des Pyrénées-Orientales. Le classement de la zone sous la protection réseau Natura 2000 en 2015 permet de conserver et de faire croître la richesse faunistique et floristique du site.",
    "alt": 2921,
    "lat": 42.571623,
    "lng": 1.932437,
    "photoUrl": "https://raw.githubusercontent.com/matvdg/Rando/master/photos/carlit.heic"
  },
  {
    "name": "Pic d'Ardiden",
    "category": "peak",
    "description": "Le pic d'Ardiden est un sommet des Pyrénées françaises qui culmine à 2 988 m d'altitude. Il domine la station de sports d'hiver de Luz-Ardiden et les lacs d'Ardiden.",
    "alt": 2988,
    "lat": 42.834665,
    "lng": -0.067955,
    "photoUrl": "https://raw.githubusercontent.com/matvdg/Rando/master/photos/ardiden.heic"
  },
  {
    "name": "Pic de Cagire",
    "category": "peak",
    "description": "Le pic de Cagire est un sommet des Pyrénées françaises, dans la région du Comminges dans la Haute-Garonne. Son altitude est de 1 912 mètres.",
    "alt": 1912,
    "lat": 42.947236,
    "lng": 0.766027,
    "photoUrl": "https://raw.githubusercontent.com/matvdg/Rando/master/photos/cagire.heic"
  },
  {
    "name": "Arbizon",
    "category": "peak",
    "description": "L'Arbizon (2 831 m) est le point culminant du massif de l'Arbizon dans les Hautes-Pyrénées. Il est situé à l'est du massif du Néouvielle, entre la vallée d'Aure à l'est, et la vallée de Campan au nord.",
    "alt": 2831,
    "lat": 42.875556,
    "lng": 0.2725,
    "photoUrl": "https://raw.githubusercontent.com/matvdg/Rando/master/photos/arbizon.jpeg"
  },
  {
    "name": "Pic de Maubermé",
    "category": "peak",
    "description": "Le pic de Maubermé est un sommet frontalier des Pyrénées culminant de 2 880 à 2 882 m d'altitude entre l'Espagne et la France. Côté français, il se situe dans le département de l'Ariège en région Occitanie. Côté espagnol, il se situe dans la province de Lérida en Catalogne.",
    "alt": 2882,
    "lat": 42.793849,
    "lng": 0.917111,
    "photoUrl": "https://raw.githubusercontent.com/matvdg/Rando/master/photos/mauberme.jpeg"
  },
  {
    "name": "Pic de Céciré",
    "category": "peak",
    "description": "Le pic de Céciré est un sommet des Pyrénées françaises culminant à 2 403 mètres, situé sur la commune de Castillon-de-Larboust, dans le département de Haute-Garonne, en région Occitanie.",
    "alt": 2403,
    "lat": 42.759113219715964,
    "lng": 0.5377231253141475,
    "photoUrl": "https://raw.githubusercontent.com/matvdg/Rando/master/photos/cecire.jpeg"
  },
  {
    "name": "Pic du Grand Quayrat",
    "category": "peak",
    "description": "Le pic du Grand Quayrat est un sommet des Pyrénées françaises qui s'élève à 3 060 mètres dans la vallée d'Oô (commune d'Oô près de Bagnères-de-Luchon dans le département de la Haute-Garonne, région Occitanie).",
    "alt": 3060,
    "lat": 42.714649861989145,
    "lng": 0.5183728446786111,
    "photoUrl": "https://raw.githubusercontent.com/matvdg/Rando/master/photos/grandquayrat.jpeg"
  },
  {
    "name": "Maison d'Arlos",
    "category": "refuge",
    "alt": 522,
    "phone": "+33768333386",
    "description": "La Maison d'Arlos c'est des chambres et table d'hôtes écoresponsables. Située à proximité du point central du GR10, elle est la parfaite étape quand on vient de Luchon avant d'atteindre le refuge Jacques Husson au pied du Crabère en Ariège, ou vice versa ! À la cascade d'Arlos, suivre le panneau qui indique le chemin qui descend vers le village (15min de marche). Tarif : à partir de 70€/nuit avec petit déjeuner bio, local et gourmand inclus ! La table d'hôtes (menu à 25€, 30€ spécial montagnard affamé), propose des produits locaux, bio comme l'agneau ou le porc noir de la vallée et beaucoup de légumes viennent directement du potager. Pensez à réserver.",
    "url": "maisondarlos.fr",
    "lat": 42.89325,
    "lng": 0.69965,
    "photoUrl": "https://raw.githubusercontent.com/matvdg/Rando/master/photos/arlos.heic"
  },
  {
    "name": "Cascade du Gouffre d'Enfer",
    "category": "waterfall",
    "description": "Au fond de la vallée du Lys, en amont de Luchon, Grand Site d'Occitanie, la cascade d'Enfer dégringole avec fracas depuis un étroit canyon. C'est le départ de nombreuses randonnées magnifiques (cirque de Crabioules, lac vert, lac bleu, lac Célinda, lac Charles...) voir même pour l'ascencion du grand Maupas.",
    "alt": 1200,
    "lat": 42.73241,
    "lng": 0.55168,
    "photoUrl": "https://raw.githubusercontent.com/matvdg/Rando/master/photos/enfer.heic"
  },
  {
    "name": "Cascade d'Arlos (la Batch)",
    "category": "waterfall",
    "description": "A deux pas du GR10, une jolie petite cascade qui marque la fin d'un petit canyoning pour débutants pratiqué l'été.",
    "alt": 600,
    "lat": 42.88211,
    "lng": 0.71033,
    "photoUrl": "https://raw.githubusercontent.com/matvdg/Rando/master/photos/batch.heic"
  },
  {
    "name": "Pic du Gar",
    "category": "peak",
    "description": "Situé près de la commune de Saint-Béat, en Haut-Comminges, le pic du Gar est un sommet connu de la Haute-Garonne, malgré sa faible altitude mais grâce à sa situation avancée par rapport au massif pyrénéen (comme son voisin, le pic de Cagire), dominant la haute vallée de la Garonne au sortir du val d'Aran. Le versant ouest, présentant une pente modérée couverte de pelouse, est situé sur la commune de Moncaup tandis que le versant oriental, plus escarpé, est sur Bezins-Garraux. Son sommet secondaire, le pic Saillant (1 756 m), porte une croix. Ces deux sommets étaient inversés sur les cartes IGN. Cette ambiguïté existe sur les cadastres de Bezins-Garraux (actuel comme sur celui de 1836) où ce sommet est dénommé pic du Gars ou Saillent ou La Pique tandis que le sommet supérieur est simplement nommé pic Saillent.",
    "alt": 1785,
    "lat": 42.94956,
    "lng": 0.69623,
    "photoUrl": "https://raw.githubusercontent.com/matvdg/Rando/master/photos/gar.heic"
  },
  {
    "name": "Pic Saillant",
    "category": "peak",
    "description": "En haut du pic, une croix domine tous les environs des pics pyrénéens. Ce pic, ainsi que le pic du Gar peuvent être vus depuis le canton de Saint-Béat. Le pic Saillant et le pic du Gar sont intervertis sur les cartes IGN. Le pic Saillant constitue un quadripoint reliant les communes de Fronsac, Chaum, Moncaup et Bezins-Garraux. Il surplombe une ligne de falaises calcaires, à la verticalité très prononcée, comportant plusieurs grandes voies équipées pour l'escalade.",
    "alt": 1756,
    "lat": 42.94219,
    "lng": 0.69827,
    "photoUrl": "https://raw.githubusercontent.com/matvdg/Rando/master/photos/saillant.heic"
  },
  {
    "lng": 0.97261190414429,
    "lat": 42.99388934681,
    "name": "Refuge de Pradioux",
    "url": "www.pyrenees-refuges.com/fr/affiche.php?numenr=1747",
    "description": "Cabane ONF ouverte à tous de passage le 03 02 22 il y avait un poêle à bois avec réservé dans refuge et bois tout autour grille pour griller 3 ou 4 assiettes 3 poêles 4 fauteuils en plastique de camping une table qui sert pour monter à l'étage ou il y a trois matelas chacun dans sa housse en plastique l'ensemble est rustique mais propre dehors sur une grande dalle betonnee présence d'une table et ses deux bancs attenants.",
    "photoUrl": "https://raw.githubusercontent.com/matvdg/Rando/master/photos/refugepradioux.jpeg",
    "alt": 1064,
    "category": "shelter"
  },
  {
    "lng": -0.4728,
    "lat": 42.86811,
    "name": "Cabane de Aas",
    "url": "www.pyrenees-refuges.com/fr/affiche.php?numenr=1417",
    "description": "Cabane de berger fermée petite partie ouverte pouvant servird'abri en cas d'orage.",
    "photoUrl": "https://www.pyrenees-refuges.com/media/photo/1417_1471474579.jpg",
    "alt": 1668,
    "category": "shelter"
  },
  {
    "lng": -0.17042317052629,
    "lat": 42.654572240007,
    "name": "Refugio Planas d'Abozo de Broto",
    "url": "www.pyrenees-refuges.com/fr/affiche.php?numenr=1694",
    "description": "Cabane ouverte restaurée en septembre 2018 chambre de 10 places salle à manger eclairage par panneaux solaires et recuperateur d'eau de pluie.",
    "photoUrl": "https://www.pyrenees-refuges.com/media/photo/15730735176256.jpg",
    "alt": 1640,
    "category": "shelter"
  },
  {
    "lng": -0.687865,
    "lat": 42.816503,
    "name": "Refugio forestal de Acher",
    "url": "www.pyrenees-refuges.com/fr/affiche.php?numenr=1628",
    "description": "Abri 2014 porte en tole endommagee trou dans le toit près de la cheminée pas de mobilier.",
    "photoUrl": "https://www.pyrenees-refuges.com/media/photo/20221224_867286.jpg",
    "alt": 1742,
    "category": "shelter"
  },
  {
    "lng": -0.72624029486501,
    "lat": 42.884678952629,
    "name": "Caseta Foya Barcal Acherito",
    "url": "www.pyrenees-refuges.com/fr/affiche.php?numenr=1733",
    "description": "Cabane restaurée en 2018 deux pièces 2014 une pièce fermée et la seconde encombrée du matériel de bergers sacs de sel parfois notee archerito.",
    "photoUrl": "https://raw.githubusercontent.com/matvdg/Rando/master/photos/cabanefoyabarcal.jpeg",
    "alt": 1705,
    "category": "shelter"
  },
  {
    "lng": 1.87006179,
    "lat": 42.6748631,
    "name": "Cabane d'Agnelle Morto",
    "url": "www.pyrenees-refuges.com/fr/affiche.php?numenr=4",
    "description": "Acces direct par la route très jolie cabane refaite à neuf très propre couchage pour 2 un peu juste pas de matelas petit stock de bois.",
    "photoUrl": "https://www.pyrenees-refuges.com/media/photo/4_1225806507.jpg",
    "alt": 1300,
    "category": "shelter"
  },
  {
    "lng": 1.60892844,
    "lat": 42.5110832,
    "name": "Refuge des Agols",
    "url": "www.pyrenees-refuges.com/fr/affiche.php?numenr=5.",
    "photoUrl": "https://www.pyrenees-refuges.com/media/photo/5_1346961539.jpg",
    "alt": 2230,
    "category": "shelter"
  },
  {
    "lng": 1.7561,
    "lat": 42.3197,
    "name": "Barraca de l'Agre",
    "url": "www.pyrenees-refuges.com/fr/affiche.php?numenr=1632",
    "description": "Au bout de la piste partant du village de pi au niveau de l'aire recreative ensuite la piste n est plus ouverte aux voitures.",
    "photoUrl": "https://www.pyrenees-refuges.com/media/photo/2000_1554100974.jpg",
    "alt": 1330,
    "category": "shelter"
  },
  {
    "lng": -0.628637,
    "lat": 42.830664,
    "name": "Cabana de Aguas Tuertas",
    "url": "www.pyrenees-refuges.com/fr/affiche.php?numenr=1623",
    "description": "Cabane ouverte juillet 2018 utilisee par les bergers ou les randonneurs eau à proximité à purifier cheminée mais pas de bois à proximité pas de mobilier comme partout ailleurs respectez les lieux et descendez vos déchêts merci.",
    "photoUrl": "https://www.pyrenees-refuges.com/media/photo/2001_1553593472.jpg",
    "alt": 1615,
    "category": "shelter"
  },
  {
    "lng": 0.09803984,
    "lat": 42.7591235,
    "name": "Cabane de Aguila",
    "url": "www.pyrenees-refuges.com/fr/affiche.php?numenr=455",
    "description": "Cabane en bon état 4 places sur un bat flanc en metal nombreux rangements cheminée qui sert de poubelle et de depotoir à certains faineants incapables de redescendre leurs déchêts dans la vallée.",
    "photoUrl": "https://www.pyrenees-refuges.com/media/photo/455_1437561669.jpg",
    "alt": 1900,
    "category": "shelter"
  },
  {
    "lng": 0.1120442,
    "lat": 42.7564068,
    "name": "Cabane Aguilous",
    "url": "www.pyrenees-refuges.com/fr/affiche.php?numenr=739",
    "description": "La cabane est maintenant fermé par un cadenas et une pancarte est affiche propriete privée c s v b réservée aux eleveurs cabane en bon état 8 places mais exigus à huit dedans quand même elle se situe dans le haut de la montagne des aiguillous en face du gerbats sous le soum des tours.",
    "photoUrl": "https://www.pyrenees-refuges.com/media/photo/739_1556737855.jpg",
    "alt": 2220,
    "category": "shelter"
  },
  {
    "lng": -0.52863158190558,
    "lat": 42.787921181159,
    "name": "El'Aguila Refugio",
    "url": "www.pyrenees-refuges.com/fr/affiche.php?numenr=803",
    "description": "Attention ce n est pas vraiment un refuge l'auberge el aguila est nee en 1981 du reve de certains amoureux de ces montagnes qui ont transforme un chalet familial en 1ere refuge de montagne dans une station de ski candanchu après plusieurs reformes les travaux les plus importants ont été realises en 1992 pour tenir compte de la distribution actuelle sur 2 etages de plusieurs chambres en 1997 les chambres quadruples avec salle de bains semblaient offrir un meilleur service ",
    "alt": 1550,
    "category": "refuge"
  },
  {
    "lng": 1.714103703941,
    "lat": 42.297119505732,
    "name": "Refugi Prat d'Aguilo",
    "url": "www.pyrenees-refuges.com/fr/affiche.php?numenr=835",
    "description": "Refuge guarde toute l'annee nuitee seule 19 réservation par mail feec refusonline com ou téléphone 3497 364 16 81 tarifs 10 supplémentaires en hiver sauf nuitee energie par butane et panneaux solaires douches place pour cuisine libre eau à l'intérieur et extérieur chauffage par radiateurs et gasoil lits superposés avec couvertures matelas wc pas de téléphone partie hivernale matelas pas de couverture pas d'eau pas de chauffage accès vehicules de la route puigcerda seu urgell à martinet prendre la route pour montella dans l'entree route à droite et piste 15 km accès à pied par le couloir de cristal 6h de gosol par la sierra pedregosa 5h de montella 3h du refuge sant jordi par le col de pendis 4h du refuge estasen par la sierra pedregosa 4h.",
    "photoUrl": "https://www.pyrenees-refuges.com/media/photo/835_1320896818.jpg",
    "alt": null,
    "category": "refuge"
  },
  {
    "lng": 0.666388,
    "lat": 42.66555,
    "name": "Cabane dels Aiguallut",
    "url": "www.pyrenees-refuges.com/fr/affiche.php?numenr=892",
    "description": "Cabane en tole verte sans confort mais située sur la hrp au dessus du trou du toro au sud avant d'arriver sur le trou du toro montez sur la droite cabane invisible en venant de benasque.",
    "photoUrl": "https://www.pyrenees-refuges.com/media/photo/aigualluts.jpg",
    "alt": 2070,
    "category": "shelter"
  },
  {
    "lng": 0.11320617,
    "lat": 42.7356766,
    "name": "Cabane des Aires",
    "url": "www.pyrenees-refuges.com/fr/affiche.php?numenr=456",
    "description": "Petite cabane en bon état renovee en 2004 table froide car en béton.",
    "photoUrl": "https://raw.githubusercontent.com/matvdg/Rando/master/photos/cabaneaires.jpeg",
    "alt": 2132,
    "category": "shelter"
  },
  {
    "lng": 1.043333,
    "lat": 42.698056,
    "name": "Cabane d'Airoto",
    "url": "www.pyrenees-refuges.com/fr/affiche.php?numenr=732",
    "description": "Cabane ouverte et en bon état.",
    "photoUrl": "https://www.pyrenees-refuges.com/media/photo/732_1232909619.jpg",
    "alt": 2200,
    "category": "shelter"
  },
  {
    "lng": 2.18185265,
    "lat": 42.47616099,
    "name": "Cabane d'Aixeques",
    "url": "www.pyrenees-refuges.com/fr/affiche.php?numenr=880",
    "description": "Sans porte forte source à 100m est nord est suivre la murette parallele à la piste.",
    "photoUrl": "https://www.pyrenees-refuges.com/media/photo/aixeques2.jpg",
    "alt": 1691,
    "category": "shelter"
  },
  {
    "lng": 0.0041,
    "lat": 42.73041,
    "name": "Cabane d'Alans",
    "url": "www.pyrenees-refuges.com/fr/affiche.php?numenr=1153",
    "description": "Cabane pastorale dotée de deux lits avec matelas en mousse aucune fenêtre porte en metal et qui fermé correctement position e 0000 14 80 n 4243 49 42.",
    "photoUrl": "https://www.pyrenees-refuges.com/media/photo/1153_1472998835.jpg",
    "alt": 1905,
    "category": "shelter"
  },
  {
    "lng": 1.2853,
    "lat": 42.7361,
    "name": "Cabane Etang Alet",
    "url": "www.pyrenees-refuges.com/fr/affiche.php?numenr=1360",
    "description": "Cabane",
    "alt": 1955,
    "category": "shelter"
  },
  {
    "lng": 2.2804,
    "lat": 42.4559,
    "name": "Cabane pastorale de Alemany",
    "url": "www.pyrenees-refuges.com/fr/affiche.php?numenr=1438",
    "description": "Cabane réservée au vacher communal située à 200m de la cabane de l'alemany.",
    "photoUrl": "https://www.pyrenees-refuges.com/media/photo/2000_1477567651.jpg",
    "alt": 1990,
    "category": "shelter"
  },
  {
    "lng": 2.2811222076416,
    "lat": 42.456790025936,
    "name": "Cabane de Alemany",
    "url": "www.pyrenees-refuges.com/fr/affiche.php?numenr=852",
    "description": "Table bancs poêle à bois sympathique refuge qui peut-être difficile à localiser par temps de brouillard.",
    "photoUrl": "https://www.pyrenees-refuges.com/media/photo/852_1433706319.jpg",
    "alt": 1968,
    "category": "shelter"
  },
  {
    "lng": 1.893333,
    "lat": 42.31944399,
    "name": "Niu de l'Aliga",
    "url": "www.pyrenees-refuges.com/fr/affiche.php?numenr=838",
    "description": "Située au sommet de la tossa d'alp en haut des remontees mecaniques accessible par une piste en été ouverte est surement ouvert en hiver aussi.",
    "photoUrl": "https://www.pyrenees-refuges.com/media/photo/838_1320901446.jpg",
    "alt": 2520,
    "category": "shelter"
  },
  {
    "lng": -0.2758668,
    "lat": 42.8134958,
    "name": "Refuge Alphonse XIII",
    "url": "www.pyrenees-refuges.com/fr/affiche.php?numenr=6",
    "description": "Refuge fermé.",
    "photoUrl": "https://www.pyrenees-refuges.com/media/photo/6_1197892247.jpg",
    "alt": 2140,
    "category": "shelter"
  },
  {
    "lng": 0.984166,
    "lat": 42.596944,
    "name": "Amitges",
    "url": "www.pyrenees-refuges.com/fr/affiche.php?numenr=827",
    "description": "Refuge gardé accessible avec les 4x4 taxi pour le refuge hiver 12 places avec couvertures matelas poste emetteur et poêle à gaz.",
    "photoUrl": "https://www.pyrenees-refuges.com/media/photo/827_1443299722.jpg",
    "alt": 2380,
    "category": "refuge"
  },
  {
    "lng": -0.46362519264221,
    "lat": 42.765122900771,
    "name": "Mallata de Anayet ou Refugio de Arroyetas",
    "url": "www.pyrenees-refuges.com/fr/affiche.php?numenr=789",
    "description": "Immonde plein d'ordures.",
    "photoUrl": "https://www.pyrenees-refuges.com/media/photo/789_1560790678.jpg",
    "alt": 2018,
    "category": "shelter"
  },
  {
    "lng": -0.69816,
    "lat": 42.93954,
    "name": "Cayolar de Anaye",
    "url": "www.pyrenees-refuges.com/fr/affiche.php?numenr=8",
    "description": "Ensemble de deux cabanes dont une ouverte hors période estivale equipée de table 2 bancs poêle à bois quelques meubles et d'une mezzanine.",
    "photoUrl": "https://www.pyrenees-refuges.com/media/photo/8_1543249614.jpg",
    "alt": 1600,
    "category": "shelter"
  },
  {
    "lng": -0.70036,
    "lat": 42.9396,
    "name": "Cayolar anaye (coum)",
    "url": "www.pyrenees-refuges.com/fr/affiche.php?numenr=1465",
    "description": "Petite cabane rustique située à 500m environ des cayolars principaux aménagement sommaire mais pouvant servird'abri.",
    "photoUrl": "https://www.pyrenees-refuges.com/media/photo/2000_1494965548.jpg",
    "alt": 1530,
    "category": "shelter"
  },
  {
    "lng": -0.15934479366866,
    "lat": 42.034254642739,
    "name": "Refuge du col d'Andorre",
    "url": "www.pyrenees-refuges.com/fr/affiche.php?numenr=890",
    "description": "10 places 12 maxi bas flanc étage pour le couchage le bas flanc est modulable pour se transformer en table bancs table en pierre lieu dans le bergons au dessus d'argeles.",
    "photoUrl": "https://www.pyrenees-refuges.com/media/photo/890_1476471268.jpg",
    "alt": 1440,
    "category": "shelter"
  },
  {
    "lng": 2.0011361,
    "lat": 42.370655,
    "name": "Refuge de l'Orry Andreu",
    "url": "www.pyrenees-refuges.com/fr/affiche.php?numenr=366",
    "description": "2 batiments très degrades int ext couvertures herbacees du toit en vrac pas de porte ou ne fermant pas pas de fenêtres ou cassees volets ne fermant pas cheminées cassees ou deteriorees très sales int odeurs d'urines dejections animales ordures les matelas sur sommiers métalliques 2 niveaux beaucoup plus que douteux très jolie jasse et très propre poubelles source aire de pic nic.",
    "photoUrl": "https://www.pyrenees-refuges.com/media/photo/366_1558024007.jpg",
    "alt": 1930,
    "category": "shelter"
  },
  {
    "lng": -0.55567999,
    "lat": 42.06304,
    "name": "Cabane du Col d'Andurte",
    "url": "www.pyrenees-refuges.com/fr/affiche.php?numenr=1328",
    "description": "Petite cabane métallique en bon état et ouverte situé dans le massif au sud du col marie blanque table bancs couchage pour 3 un poêle attention l'abri métallique ne figure pas sur la carte ign il se situe en lisiere de forêt au sud de l'abreuvoir la cabane figurant sur la carte n est qu une ruine.",
    "photoUrl": "https://www.pyrenees-refuges.com/media/photo/1328_1444772573.jpg",
    "alt": 1380,
    "category": "shelter"
  },
  {
    "lng": 1.387778,
    "lat": 42.7822,
    "name": "Cabane Ane Labeilla",
    "url": "www.pyrenees-refuges.com/fr/affiche.php?numenr=987",
    "description": "Petite cabane en pierres assez rustique refaite dans le cadre d'un programme pedagogique de découverte du milieu montagnard mais on peut y dormir si besoin le bat flanc de rondins occupé  tout l'espace.",
    "photoUrl": "https://www.pyrenees-refuges.com/media/photo/2000_1219678693.jpg",
    "category": "shelter"
  },
  {
    "lng": 0.40863452278775,
    "lat": 42.680014039647,
    "name": "Cabana Anes cruzes (Agnes Cruces)",
    "url": "www.pyrenees-refuges.com/fr/affiche.php?numenr=745",
    "description": "Nouvelle cabane d'anes cruses située sur un eperon à quelques mètres au dessus du sentier hrp gr11 lit pour 1 personne 3 places à sol béton cheminée pas de bois en bon état renovee en 2006 mal placee sur carte n23 se trouve avant la separation gr11 hrp occupéepar le berger en aout.",
    "photoUrl": "https://raw.githubusercontent.com/matvdg/Rando/master/photos/anescruzes.jpeg",
    "alt": 2100,
    "category": "shelter"
  },
  {
    "lng": 1.49525794,
    "lat": 42.6081693,
    "name": "Refuge de l'Angonella",
    "url": "www.pyrenees-refuges.com/fr/affiche.php?numenr=10",
    "description": "Table bancs cheminée scie fontaine.",
    "photoUrl": "https://www.pyrenees-refuges.com/media/photo/10_1308772740.jpg",
    "alt": 2235,
    "category": "shelter"
  },
  {
    "lng": 1.691,
    "lat": 42.725,
    "name": "ANGAKA village Nordique",
    "url": "www.pyrenees-refuges.com/fr/affiche.php?numenr=1229",
    "description": "C est un village de yourte et tipi avec une cabane trappeur pour preparer les repas et manger toilettes seches douches solaires si soleil repas proposes par le restaurant du plateau réservation obligatoire.",
    "photoUrl": "https://www.pyrenees-refuges.com/media/photo/1229_1474536464.jpg",
    "alt": 1800,
    "category": "shelter"
  },
  {
    "lng": 0.45743465,
    "lat": 42.62748599,
    "name": "Refuge Angel'Orus - Forcau",
    "url": "www.pyrenees-refuges.com/fr/affiche.php?numenr=146.",
    "photoUrl": "https://www.pyrenees-refuges.com/media/photo/146_1292596095.jpg",
    "alt": 2100,
    "category": "shelter"
  },
  {
    "lng": -0.56172999,
    "lat": 42.81169,
    "name": "Cabane d'Anglus",
    "url": "www.pyrenees-refuges.com/fr/affiche.php?numenr=1306",
    "description": "Cabane située au dessus des forges d'abel très bon état propre bien equipée table poêle mezzanine etc pas mal de bois sec pas d'eau à proximité.",
    "photoUrl": "https://www.pyrenees-refuges.com/media/photo/1306_1447628860.jpg",
    "alt": 1290,
    "category": "shelter"
  },
  {
    "lng": 0.709369202672,
    "lat": 42.590163916211,
    "name": "Refuge d'Anglios",
    "url": "www.pyrenees-refuges.com/fr/affiche.php?numenr=9",
    "description": "Table bancs pas de cheminée 4 places dans la pièce principale 2 au grenier.",
    "photoUrl": "https://www.pyrenees-refuges.com/media/photo/9_1505161115.jpg",
    "alt": 2240,
    "category": "shelter"
  },
  {
    "lng": 1.99594,
    "lat": 42.54,
    "name": "Orri de l'Angoustrine",
    "url": "www.pyrenees-refuges.com/fr/affiche.php?numenr=1175",
    "description": "Un orry avec cheminée pour s enfumer.",
    "photoUrl": "https://www.pyrenees-refuges.com/media/photo/2002_1290363496.jpg",
    "category": "shelter"
  },
  {
    "lng": 0.759653,
    "lat": 42.716758,
    "name": "Cabana dera Pleta des Anheths",
    "url": "www.pyrenees-refuges.com/fr/affiche.php?numenr=1579",
    "description": "2 cabanes de bergers à visiter peu d'informations.",
    "photoUrl": "https://www.pyrenees-refuges.com/media/photo/2000_1546972218.jpg",
    "alt": 1768,
    "category": "shelter"
  },
  {
    "lng": 0.0172,
    "lat": 42.57419,
    "name": "Albergue Añisclo",
    "url": "www.pyrenees-refuges.com/fr/affiche.php?numenr=814",
    "description": "Albergue abierto todo el ano.",
    "photoUrl": "https://www.pyrenees-refuges.com/media/photo/814_1321481223.jpg",
    "alt": 1281,
    "category": "refuge"
  },
  {
    "lng": -0.66689,
    "lat": 42.89135,
    "name": "Cabane de Annès (Anès)",
    "url": "www.pyrenees-refuges.com/fr/affiche.php?numenr=11",
    "description": "Etat moyen equipement sommaire.",
    "photoUrl": "https://www.pyrenees-refuges.com/media/photo/11_1447628493.jpg",
    "alt": 1730,
    "category": "shelter"
  },
  {
    "lng": -0.7172694,
    "lat": 42.8974612,
    "name": "Cabane d'Ansabère",
    "url": "www.pyrenees-refuges.com/fr/affiche.php?numenr=12",
    "description": "Cabane de berger l'été avec une partie restant ouverte pour l'hiver au rdc table 10 places 3 bancs 4 tabourets couchage à l'étage pas de bas flanc prevoir matelas couchage possible à 10 personnes.",
    "photoUrl": "https://www.pyrenees-refuges.com/media/photo/20220405_677614.jpg",
    "alt": 1550,
    "category": "shelter"
  },
  {
    "lng": -0.71969,
    "lat": 42.88773,
    "name": "Serre de Ansabe",
    "url": "www.pyrenees-refuges.com/fr/affiche.php?numenr=1387",
    "description": "Petit abri de pierre toit plat equipement très sommaire lit pliant etagere mais l'abri est en bon état et relativement propre source à 150m environ au se.",
    "photoUrl": "https://www.pyrenees-refuges.com/media/photo/2000_1447625886.jpg",
    "alt": 1965,
    "category": "shelter"
  },
  {
    "lng": -0.62,
    "lat": 42.809444,
    "name": "Cabane de Anso",
    "url": "www.pyrenees-refuges.com/fr/affiche.php?numenr=1005",
    "description": "Vieille cabane sombre et humide en très mauvais état à éviter pour la nuit située dans le vallon d'aragon subordan près de l'escale d'aygues tortes.",
    "photoUrl": "https://www.pyrenees-refuges.com/media/photo/2001_1224490395.jpg",
    "alt": 1690,
    "category": "shelter"
  },
  {
    "lng": 0.61999261379242,
    "lat": 42.425052338109,
    "name": "Borda de Ansuils",
    "url": "www.pyrenees-refuges.com/fr/affiche.php?numenr=1601",
    "description": "Grange qui tombe en ruines.",
    "photoUrl": "https://www.pyrenees-refuges.com/media/photo/2006_1550000444.jpg",
    "alt": 1482,
    "category": "shelter"
  },
  {
    "lng": 0.57059182,
    "lat": 42.8553664,
    "name": "Cabane d'Antenac Superieur",
    "url": "www.pyrenees-refuges.com/fr/affiche.php?numenr=14",
    "description": "Cabane propre une seule place pas d'eau cheminée mais peu de bois en urgence seulement preferer la cabane inferieure.",
    "photoUrl": "https://www.pyrenees-refuges.com/media/photo/14_1463702162.jpg",
    "alt": 1790,
    "category": "shelter"
  },
  {
    "lng": 0.57787079,
    "lat": 42.852926,
    "name": "Cabane de Antenac Inferieur ou Seridet",
    "url": "www.pyrenees-refuges.com/fr/affiche.php?numenr=13",
    "description": "Eau de pluie uniquement à traiter ou source 200m de denivelee plus bas belle cabane entretenue présence de bois pas loin.",
    "photoUrl": "https://www.pyrenees-refuges.com/media/photo/13_1463701969.jpg",
    "alt": 1650,
    "category": "shelter"
  },
  {
    "lng": 1.8902778,
    "lat": 42.610556,
    "name": "Cabane de la Coume d'Anyell",
    "url": "www.pyrenees-refuges.com/fr/affiche.php?numenr=957",
    "description": "Nouvelle cabane non reportee sur les cartes construite en 2004 située sur le GR10 entre le refuge des besines et le col 2mn avant le laquet sous le col et 100m au nord du GR10 brune partie fermée pour les bergers et une petite partie ouverte pour les randonneurs rien à part la couchette source devant la cabane.",
    "photoUrl": "https://www.pyrenees-refuges.com/media/photo/957_1251055514.jpg",
    "alt": 2350,
    "category": "shelter"
  },
  {
    "lng": 0.11771595,
    "lat": 42.9138144,
    "name": "Cabane d'Aoube",
    "url": "www.pyrenees-refuges.com/fr/affiche.php?numenr=16",
    "description": "Petite cabane très mignone de l'extérieur.",
    "photoUrl": "https://www.pyrenees-refuges.com/media/photo/16_1236086248.jpg",
    "alt": 1850,
    "category": "shelter"
  },
  {
    "lng": 0.26173040759292,
    "lat": 42.905378173663,
    "name": "Cabane de l'Aoubère",
    "url": "www.pyrenees-refuges.com/fr/affiche.php?numenr=895",
    "description": "Un peu en desordre mais un bon abri pour 4 situé en dessous du col de crabe.",
    "photoUrl": "https://www.pyrenees-refuges.com/media/photo/1000_1194878021.jpg",
    "alt": 1760,
    "category": "shelter"
  },
  {
    "lng": 0.93438929,
    "lat": 42.8160715,
    "name": "Cabane d'Aoua",
    "url": "www.pyrenees-refuges.com/fr/affiche.php?numenr=15",
    "description": "Nommee cabane d'haou sur carte ign table et bancs cheminée très agréable 1 matelas à l'étage.",
    "photoUrl": "https://www.pyrenees-refuges.com/media/photo/15_1408706750.jpg",
    "alt": 1320,
    "category": "shelter"
  },
  {
    "lng": 0.44483,
    "lat": 42.93090999,
    "name": "Cabane Col de l'Aouet",
    "url": "www.pyrenees-refuges.com/fr/affiche.php?numenr=477",
    "description": "Cette cabane en tole verte est réservée au berger et donc fermée.",
    "photoUrl": "https://www.pyrenees-refuges.com/media/photo/477_1321521894.jpg",
    "alt": 1620,
    "category": "shelter"
  },
  {
    "lng": 0.12611,
    "lat": 42.96458,
    "name": "Cabane d'Aouet",
    "url": "www.pyrenees-refuges.com/fr/affiche.php?numenr=434.",
    "photoUrl": "https://raw.githubusercontent.com/matvdg/Rando/master/photos/cabanedaouet.jpeg",
    "alt": 1740,
    "category": "shelter"
  },
  {
    "lng": 1.0527778,
    "lat": 42.831667,
    "name": "Cabane d'Aouen",
    "url": "www.pyrenees-refuges.com/fr/affiche.php?numenr=975",
    "description": "Cabane rustique mais sympa située sur le GR10 peu après le pla de la lau petite cabane toujours ouverte qui se compose de 2 pièces 2 bons gros matelas eau juste à côté une cheminée mais qui ne tire pas très bien le bois est 150 mètres plus bas la porte s ouvre vers l'extérieur donc prevoir une pelle en hiver la partie avec la porte sur le cote est difficile à ouvrir l'autre avec la porte en face est toujours ouverte bas flancs en ciment difficile à apercevoir dans le paysage en montant du pla de la lau on peut facilement la rater surtout dans le brouillard.",
    "photoUrl": "https://www.pyrenees-refuges.com/media/photo/975_1541861908.jpg",
    "alt": 1550,
    "category": "shelter"
  },
  {
    "lng": -0.165331,
    "lat": 42.065063,
    "name": "Cabane de Aoulhet",
    "url": "www.pyrenees-refuges.com/fr/affiche.php?numenr=725",
    "description": "Cabane sympathique.",
    "photoUrl": "https://www.pyrenees-refuges.com/media/photo/725_1497384278.jpg",
    "alt": 1159,
    "category": "shelter"
  },
  {
    "lng": 1.8870359433235,
    "lat": 42.754299639931,
    "name": "Cabane Sorgeat Sarret (ex : Apailladou)",
    "url": "www.pyrenees-refuges.com/fr/affiche.php?numenr=1133",
    "description": "Renovee et rebaptisee cabane pastorale de sorgeat sarret siituee sur le GR107 chemin des bonhommes dans le domaine de ski nordique du chioula une partie ouverte en permanence 1 table 5 chaises 1 volet et 1 porte métalliques 9 mètres carres env sol en caillou de la piste robinet partie vacher ou source sud des abreuvoirs superbe vue des genets nb un tilleul rare à 1600 m.",
    "photoUrl": "https://www.pyrenees-refuges.com/media/photo/1133_1439062277.jpg",
    "alt": 1570,
    "category": "shelter"
  },
  {
    "lng": 1.74387809,
    "lat": 42.8151509,
    "name": "Cabane d'Appy",
    "url": "www.pyrenees-refuges.com/fr/affiche.php?numenr=17",
    "description": "Cabane retapee trouvee ouverte le 3 08 2013 1 table 4 chaises cheminée couchage sur une planche 2 à 3 places.",
    "photoUrl": "https://raw.githubusercontent.com/matvdg/Rando/master/photos/cabaneappy.jpeg",
    "alt": 1740,
    "category": "shelter"
  },
  {
    "lng": 1.73712696,
    "lat": 42.79557779,
    "name": "Abri d'Appy",
    "url": "www.pyrenees-refuges.com/fr/affiche.php?numenr=18",
    "description": "Abri de fortune se trouvant en dessous du roche ecole d'escalade.",
    "photoUrl": "https://www.pyrenees-refuges.com/media/photo/appyabri.jpg",
    "alt": 1100,
    "category": "shelter"
  },
  {
    "lng": 0.98107015,
    "lat": 42.8937966,
    "name": "Cabane du Col de l'Araing",
    "url": "www.pyrenees-refuges.com/fr/affiche.php?numenr=26",
    "description": "Une nouvelle cabane en construction juste à côté.",
    "photoUrl": "https://www.pyrenees-refuges.com/media/photo/26_1510203404.jpg",
    "alt": 1350,
    "category": "shelter"
  },
  {
    "lng": 2.44491643,
    "lat": 42.503919,
    "name": "Refuge Arago",
    "url": "www.pyrenees-refuges.com/fr/affiche.php?numenr=19",
    "description": "Toit de la cabane refait en 2015 ou 2014 intérieur reamenage en 2016.",
    "photoUrl": "https://raw.githubusercontent.com/matvdg/Rando/master/photos/arago.jpeg",
    "alt": 2136,
    "category": "shelter"
  },
  {
    "lng": -0.52869999,
    "lat": 42.78661,
    "name": "Valle d'Aragon",
    "url": "www.pyrenees-refuges.com/fr/affiche.php?numenr=802",
    "description": "Auberge située à candachu.",
    "photoUrl": "https://www.pyrenees-refuges.com/media/photo/802_1321523523.jpg",
    "alt": 1550,
    "category": "refuge"
  },
  {
    "lng": 0.8793962,
    "lat": 42.83393,
    "name": "Cabane de l'Etang d'Araing",
    "url": "www.pyrenees-refuges.com/fr/affiche.php?numenr=678",
    "description": "belle cabane en béton et toiture de toles intérieur spacieux et très propre vaste plancher de bois à l'étage pour dormir table bancs grande cheminée balai elle est située juste derrière le barrage penser à y prendre de l'eau en contrebas du refuge de l'étang d'Araing sur le GR10.",
    "photoUrl": "https://www.pyrenees-refuges.com/media/photo/678_1474364396.jpg",
    "alt": 1965,
    "category": "shelter"
  },
  {
    "lng": 1.82943,
    "lat": 42.58144,
    "name": "Refuge de Aramasses ou cabane à Giral",
    "url": "www.pyrenees-refuges.com/fr/affiche.php?numenr=1386",
    "description": "Cabane enterree située sur la crète entre querforc et trespunts nombreux etais intérieurs peu rassurants table 2 matelas pas d'eau ni bois.",
    "photoUrl": "https://www.pyrenees-refuges.com/media/photo/2000_1446292173.jpg",
    "alt": 2479,
    "category": "shelter"
  },
  {
    "lng": 0.790736,
    "lat": 42.797482,
    "name": "Cabana de Arbaet",
    "url": "www.pyrenees-refuges.com/fr/affiche.php?numenr=1572",
    "description": "à visiter peu d'informations peut-être fermée elle semble pas très solide.",
    "photoUrl": "https://www.pyrenees-refuges.com/media/photo/2005_1546981890.jpg",
    "alt": 1840,
    "category": "shelter"
  },
  {
    "lng": 0.0287,
    "lat": 42.9051,
    "name": "Cabane de Arbeouse",
    "url": "www.pyrenees-refuges.com/fr/affiche.php?numenr=1365",
    "description": "Cabane en bon état mais sommaire avec un bac flanc métallique et une cheminée pas de table ni de bancs utilisee par les bergers pour deposer un peu de matériel.",
    "photoUrl": "https://www.pyrenees-refuges.com/media/photo/1365_1503906419.jpg",
    "alt": 1782,
    "category": "shelter"
  },
  {
    "lng": 1.511392,
    "lat": 42.633395,
    "name": "Cabane Arcalis (ou Pleta castellar)",
    "url": "www.pyrenees-refuges.com/fr/affiche.php?numenr=578",
    "description": "Une cabane à deux pas de l'ancienne route des lacs très propre une cheminée une petite table avec bancs et un bat flanc pour 4 personnes torrent proche prevoir pastilles purificatrice.",
    "photoUrl": "https://www.pyrenees-refuges.com/media/photo/578_1287426637.jpg",
    "alt": 1838,
    "category": "shelter"
  },
  {
    "lng": 1.1123,
    "lat": 42.80319999,
    "name": "Cabane de Arcouzan",
    "url": "www.pyrenees-refuges.com/fr/affiche.php?numenr=1342",
    "description": "Vieille cabane en pierres le toit à l'air récent à l'intérieur un vieux matelas place pour 1 bon je mets 2 en serrant.",
    "photoUrl": "https://www.pyrenees-refuges.com/media/photo/1342_1472693424.jpg",
    "alt": 1380,
    "category": "shelter"
  },
  {
    "lng": -0.9404897,
    "lat": 42.967179,
    "name": "Abri d'Ardane Gagnekoa",
    "url": "www.pyrenees-refuges.com/fr/affiche.php?numenr=22",
    "description": "belle cabane recemment refaite ouverte située en contrebas de la route au nord de la maison du berger coin magnifique située sur la hrp.",
    "photoUrl": "https://www.pyrenees-refuges.com/media/photo/22_1554716842.jpg",
    "alt": 1312,
    "category": "shelter"
  },
  {
    "lng": -0.9438888,
    "lat": 42.976944,
    "name": "Cabane d'Ardane Pekoa",
    "url": "www.pyrenees-refuges.com/fr/affiche.php?numenr=712",
    "description": "Edit cabane privée utilisee par les bergers à n utiliser qu en cas d'urgence ou de tempete la cabane ouverte se situe plus en amont en bord de route cabane complètement renovee avec cheminée et bas flanc neuf ainsi que toit refait avec tuiles en bois.",
    "photoUrl": "https://www.pyrenees-refuges.com/media/photo/712_1315424751.jpg",
    "alt": 1150,
    "category": "shelter"
  },
  {
    "lng": -0.6949553,
    "lat": 42.9597845,
    "name": "Cabane d'Ardinet",
    "url": "www.pyrenees-refuges.com/fr/affiche.php?numenr=23",
    "description": "Cabane bien isolee du vent rez de chaussee 2 bancs et des etageres en metal une échelle en bois plus que rustique permet d'acceder à une mezzanine en bois ou l'on peut dormir à 4 voir 6 bien tasse la seconde partie de la cabane est occupéepar le berger l'été.",
    "photoUrl": "https://www.pyrenees-refuges.com/media/photo/23_1292444169.jpg",
    "alt": 1570,
    "category": "shelter"
  },
  {
    "lng": 1.22830788,
    "lat": 42.77879389,
    "name": "Cabane d'Ardio",
    "url": "www.pyrenees-refuges.com/fr/affiche.php?numenr=715",
    "description": "Cheminee mais bois 400m plus bas il y avait du bois dans la cabane quand on est arrives breau 200m plus bas brune vitre cassee penser à amener du gros scotch pour reparer provisoirement par exemple.",
    "photoUrl": "https://www.pyrenees-refuges.com/media/photo/ardio.jpg",
    "alt": 1660,
    "category": "shelter"
  },
  {
    "lng": 1.0833,
    "lat": 42.8981,
    "name": "Cabane du col de l'Arrech (de Bethmale)",
    "url": "www.pyrenees-refuges.com/fr/affiche.php?numenr=1118",
    "description": "3 cabanes situées au col de l'arech sur la longue crète nord ouest du cap de bouirex les 2 cabanes au sud de la piste sont fermées une petite cabane située au nord est ouverte mais très très spartiate c est un ancien petit container de chantier entoure de planches je croyais que c était une caravane au départ ça peut toujours servir en cas d'orage une table et un peu de place pour s allonger si besoin.",
    "photoUrl": "https://www.pyrenees-refuges.com/media/photo/1118_1441097058.jpg",
    "alt": 1418,
    "category": "shelter"
  },
  {
    "lng": 0.96835871,
    "lat": 42.8269328,
    "name": "Cabane Arech",
    "url": "www.pyrenees-refuges.com/fr/affiche.php?numenr=533",
    "description": "Située sur le GR10 accès egalement depuis le parking de la pucelle ou de celui de bocard d'eylie cabane renovee en 2013 2014 une nouvelle cabane pour le berger et l'ancienne cabane est disponible pour les randonneurs robinet à l'extérieur captage gele l'hiver peu accueillir jusqu à 8 personnes 4 à l'étage et 4 en bas.",
    "photoUrl": "https://www.pyrenees-refuges.com/media/photo/533_1541753216.jpg",
    "alt": 1635,
    "category": "shelter"
  },
  {
    "lng": 0.9553,
    "lat": 42.8258,
    "name": "Abri sous le col Arech",
    "url": "www.pyrenees-refuges.com/fr/affiche.php?numenr=1355",
    "description": "Petit abri sur le GR10 le toit n est pas complètement etanche le sol est jonche de pierres et il semble avoir été visite par les brebis il est quand même utilisable mais seulement en cas de coup dur.",
    "photoUrl": "https://www.pyrenees-refuges.com/media/photo/1355_1441391093.jpg",
    "alt": 1663,
    "category": "shelter"
  },
  {
    "lng": 0.4670262336731,
    "lat": 42.919486759648,
    "name": "Cabane Areng",
    "url": "www.pyrenees-refuges.com/fr/affiche.php?numenr=478",
    "description": "Cabane en excellent état très bien equipée poêle à bois scie pour gros bois ustensiles de cuisine 3 matelas très confortables à l'étage et au moins 1 couverture matelas gonflables eau et bois à proximité gaz pas reussi à le faire fonctionner capacite 5 personnes cabane utilisee par le berger de juin à septembre eau à l'abreuvoir lumiere sur batterie panneau solaire pas compris comment cela fonctionne donc prevoir gaz et lumiere.",
    "photoUrl": "https://www.pyrenees-refuges.com/media/photo/478_1477151372.jpg",
    "alt": 1620,
    "category": "shelter"
  },
  {
    "lng": 0.2955,
    "lat": 42.7629,
    "name": "Cabane de Aret",
    "url": "www.pyrenees-refuges.com/fr/affiche.php?numenr=1384",
    "description": "Cabane renovee en 2014 située au nord est du pic d'aret en lisiere du bois partie ouverte cote nord table bancs 6 places avec un bas flancs en hauteur et en comptant les 2 bancs larges et assez longs pas de cheminée alors qu'il y a le conduit extérieur plusieurs sources boueuses à proximité.",
    "photoUrl": "https://www.pyrenees-refuges.com/media/photo/1384_1508491743.jpg",
    "alt": 1720,
    "category": "shelter"
  },
  {
    "lng": 2.2557,
    "lat": 42.509,
    "name": "Refuge Forestier de Argoudeil",
    "url": "www.pyrenees-refuges.com/fr/affiche.php?numenr=609",
    "alt": 1473,
    "category": "shelter"
  },
  {
    "lng": 0.7425,
    "lat": 42.9405556,
    "name": "Cabane d'Arguenos",
    "url": "www.pyrenees-refuges.com/fr/affiche.php?numenr=1042",
    "description": "Située près de la piste forestière du col de caube ouverte toute petite cabane très agréable.",
    "photoUrl": "https://www.pyrenees-refuges.com/media/photo/1042_1322397252.jpg",
    "alt": 1210,
    "category": "shelter"
  },
  {
    "lng": 1.606127,
    "lat": 42.409625,
    "name": "Barraca de l'Orri d'Aristot",
    "url": "www.pyrenees-refuges.com/fr/affiche.php?numenr=1665",
    "description": "Cabane à visiter peu d'informations situé entre la moixeronera et coll de la font d'aristot.",
    "photoUrl": "https://www.pyrenees-refuges.com/media/photo/2004_1558107413.jpg",
    "alt": 1985,
    "category": "shelter"
  },
  {
    "lng": 0.16311909,
    "lat": 42.936877,
    "name": "Cabane d'Arizes",
    "url": "www.pyrenees-refuges.com/fr/affiche.php?numenr=679",
    "description": "2002 cabane delabree cote randonneurs neige à l'intérieur passee par le toit possibilite de dormir sous la souspente par terre toit refait doit proteger de la pluie en gros c est en état moyen 2016 une partie de la cabane est disponible comme un refuge pour les randonneurs dans cette section de 10 12 m2 sont empiles beaucoup de chaises et canapes il reste la place pour deux personnes pour dormir sur le sol ou table.",
    "photoUrl": "https://www.pyrenees-refuges.com/media/photo/679_1474144356.jpg",
    "alt": 1700,
    "category": "shelter"
  },
  {
    "lng": -1.533794202223,
    "lat": 42.198168406832,
    "name": "Bergerie d'Arizkun",
    "url": "www.pyrenees-refuges.com/fr/affiche.php?numenr=688",
    "description": "bergerie pouvant servir d'abri situé sur le hrp etape n2 proche du col de bagacheta au dessus du village d'Arizkun attention le positionnement est approximatif.",
    "photoUrl": "https://www.pyrenees-refuges.com/media/photo/bergerie_arizkun.jpg",
    "alt": 650,
    "category": "shelter"
  },
  {
    "lng": -0.6156851904608,
    "lat": 42.84054171143,
    "name": "Refuge d'Arlet",
    "url": "www.pyrenees-refuges.com/fr/affiche.php?numenr=24",
    "description": "En raison de gros travaux de renovation ouverture prevue dans le courant de lete 2023 joli refuge gardé du parc national situé sur l'hrp pas de pic d'envergure dans la zone dommage les tarifs sont 33 la demi pension adulte 31 les 12 16 ans et 25 de 12 ans mail hors saison refuge arlet yahoo fr car pas de connexion internet au refuge nouvelles gardiennes en 2011 05 59 36 00 99 au refuge ou en dehors des dates d'ouverture 06 48 99 38 22 partie hiver pièce sous l'escalier froid matelas couvertures.",
    "photoUrl": "https://www.pyrenees-refuges.com/media/photo/24_1222257027.jpg",
    "alt": 1986,
    "category": "refuge"
  },
  {
    "lng": 0.34706711769104,
    "lat": 42.524044315728,
    "name": "Refugio d'Armena",
    "url": "www.pyrenees-refuges.com/fr/affiche.php?numenr=25",
    "description": "Joli refuge non gardé en bon état grande table et bancs cheminée téléphone de secours armoire premiers secours grille de barbecue casserolles inox trepier pour poser sur le feu balai terrasse extérieure au milieu des paturages clairsemes de pins eau à la fuente de rianzes à 2 min.",
    "photoUrl": "https://www.pyrenees-refuges.com/media/photo/25_1315515230.jpg",
    "alt": 1860,
    "category": "shelter"
  },
  {
    "lng": -0.5698,
    "lat": 42.93289999,
    "name": "Cabane de Arna",
    "url": "www.pyrenees-refuges.com/fr/affiche.php?numenr=1435",
    "description": "Cabane notee sur la carte mais en ruines située à l'est de cette eygun en vallée d'aspe",
    "alt": 950,
    "category": "shelter"
  },
  {
    "lng": -0.5321076,
    "lat": 42.8248468,
    "name": "Cabane Arnousse",
    "url": "www.pyrenees-refuges.com/fr/affiche.php?numenr=418",
    "description": "Cabane fermée utilisee par un berger en période estivale présence de porches pouvant servird'abri.",
    "photoUrl": "https://www.pyrenees-refuges.com/media/photo/418_1494877728.jpg",
    "alt": 1500,
    "category": "shelter"
  },
  {
    "lng": 0.88184672,
    "lat": 42.8772192,
    "name": "Cabane Aron",
    "url": "www.pyrenees-refuges.com/fr/affiche.php?numenr=534",
    "description": "Cabane sans doute en cours de renovation cheminée toit cheminée un sommier métallique sans matelas pas de table baucoup de matériel de construction pas de bois eau à 100m une source notee sur la carte à 5mn.",
    "photoUrl": "https://www.pyrenees-refuges.com/media/photo/534_1546186599.jpg",
    "alt": 1550,
    "category": "shelter"
  },
  {
    "lng": 0.2702,
    "lat": 42.89459999,
    "name": "Cabane lac Arou",
    "url": "www.pyrenees-refuges.com/fr/affiche.php?numenr=1285",
    "description": "La cabane à une dizaine d'annees et à toujours été fermée à priori elle est faite pour les bergers mais elle n est jamais occupé e.",
    "photoUrl": "https://www.pyrenees-refuges.com/media/photo/2000_1426940395.jpg",
    "alt": 1800,
    "category": "shelter"
  },
  {
    "lng": 1.4431,
    "lat": 42.86399999,
    "name": "Cabane du Courtal d'Aroulac",
    "url": "www.pyrenees-refuges.com/fr/affiche.php?numenr=1267",
    "description": "Cabane exigue au confort sommaire mais avec cheminée porte et fenêtre en bon état.",
    "photoUrl": "https://www.pyrenees-refuges.com/media/photo/2001_1407749950.jpg",
    "alt": 1534,
    "category": "shelter"
  },
  {
    "lng": 1.522835341429,
    "lat": 42.212602751253,
    "name": "Refugi de l'Arp",
    "url": "www.pyrenees-refuges.com/fr/affiche.php?numenr=1702",
    "description": "Refuge gardé se renseigner sur le site pour les periodes de gardiennage le refuge dispose de 21 places chambres de 2 4 ou 8 personnes 2 salles de bains communes avec douches chaudes au premier étage se trouve la salle à manger avec salon cheminée espace pour enfants bibliotheque et jeux de societe location de velos wifi.",
    "photoUrl": "https://raw.githubusercontent.com/matvdg/Rando/master/photos/refugearp.jpeg",
    "alt": null,
    "category": "refuge"
  },
  {
    "lng": -0.4719867,
    "lat": 42.9750079,
    "name": "Refuge d'Arrioutort",
    "url": "www.pyrenees-refuges.com/fr/affiche.php?numenr=30",
    "description": "Table bancs grande cheminée bois et eau à proximité il y a plusieurs lits avec sommiers à ressorts et de très vieux matelas à letage inferieur pour environ 8 ou 10 personnes à l'étage il y a une plate forme ou 15 autres personnes peuvent être hebergees.",
    "photoUrl": "https://www.pyrenees-refuges.com/media/photo/30_1544712807.jpg",
    "alt": 1530,
    "category": "shelter"
  },
  {
    "lng": -0.3654871,
    "lat": 42.84172079,
    "name": "Cabane d'Arrious",
    "url": "www.pyrenees-refuges.com/fr/affiche.php?numenr=29.",
    "photoUrl": "https://www.pyrenees-refuges.com/media/photo/arrious5.jpg",
    "alt": 1775,
    "category": "shelter"
  },
  {
    "lng": -0.3293,
    "lat": 42.84611,
    "name": "Refuge d'Arremoulit",
    "url": "www.pyrenees-refuges.com/fr/affiche.php?numenr=27",
    "description": "Le refuge est fermé pour travaux du mois de juin 2023 jusqu à l'été 2025 il n y à pas d'hebergement possible sur ce site pendant cette période le refuge est situé au pied de la face nord ouest du palas dans un magnifique site lacustre au coeur du parc national des Pyrénées particulierement bien place pour l'ascension du palas de l'arriel ou du balaitous il est refuge etape de la traversee des Pyrénées hrp période de gardiennage refuge gardé de debut juin à fin septembre possibilite de reservations en dehors de cette période mais l'acces est delicat en hiver.",
    "photoUrl": "https://www.pyrenees-refuges.com/media/photo/27_1474229630.jpg",
    "alt": 2305,
    "category": "refuge"
  },
  {
    "lng": 0.442222,
    "lat": 42.872222,
    "name": "Cabane d'Arrieu Tort",
    "url": "www.pyrenees-refuges.com/fr/affiche.php?numenr=28",
    "description": "Située sur le chemin du lac balise en jaune et dont l'autre extremite est accessible depuis la piste forestière de risdifficile à trouver le chemin est très peu visible cabane fermée pour l'instant par l'ONF car trop endommagee.",
    "photoUrl": "https://www.pyrenees-refuges.com/media/photo/28_1271442542.jpg",
    "alt": 1630,
    "category": "shelter"
  },
  {
    "lng": -0.1805,
    "lat": 42.8781,
    "name": "Cabanes de Arras",
    "url": "www.pyrenees-refuges.com/fr/affiche.php?numenr=1374",
    "description": "Cabanes situées sur le GR10 entre col d'ilheou et refuge d'ilheou",
    "alt": 2185,
    "category": "shelter"
  },
  {
    "lng": 0.9710926,
    "lat": 42.8674504,
    "name": "Cabane de l'Arraing",
    "url": "www.pyrenees-refuges.com/fr/affiche.php?numenr=1288",
    "description": "Petite cabane sur la variante GR10e depuis bonac peu visible à la montee cachee par des arbrisseaux rez de chaussee sale aucun equipement pas de cheminée étage plancher en bois sale pas d'eau à proximité.",
    "photoUrl": "https://www.pyrenees-refuges.com/media/photo/2000_1430672017.jpg",
    "alt": 1129,
    "category": "shelter"
  },
  {
    "lng": -0.63874,
    "lat": 42.01657,
    "name": "Cabane d'Arrès",
    "url": "www.pyrenees-refuges.com/fr/affiche.php?numenr=1453",
    "description": "Petite cabane renovee assez somaire.",
    "photoUrl": "https://www.pyrenees-refuges.com/media/photo/2001_1483385742.jpg",
    "alt": 1350,
    "category": "shelter"
  },
  {
    "lng": -0.3994372,
    "lat": 42.8423389,
    "name": "Cabane d'Arrègatiou",
    "url": "www.pyrenees-refuges.com/fr/affiche.php?numenr=753",
    "description": "belle cabane avec 4 matelas mousse sur la mezzanine de la place au rez de chaussee le mobilier laisse à desirer mais on loge à 6 en se serrant la cheminée est un peu haute mais chauffe quand même on trouve du bois mort en descendant dans la forêt une scie este à disposition un petit cours d'eau à proximité vue superbe sur le palas et les cretes de soques.",
    "photoUrl": "https://www.pyrenees-refuges.com/media/photo/753_1546955381.jpg",
    "alt": 1650,
    "category": "shelter"
  },
  {
    "lng": -0.329,
    "lat": 42.9216,
    "name": "Cabane d’Arre",
    "url": "www.pyrenees-refuges.com/fr/affiche.php?numenr=1652",
    "description": "Cabane ouverte en pierre renove en 2015.",
    "photoUrl": "https://www.pyrenees-refuges.com/media/photo/2000_1555422021.jpg",
    "alt": 2400,
    "category": "shelter"
  },
  {
    "lng": 1.1328685264012,
    "lat": 42.781889706664,
    "name": "Cabane pastorale d'Arreau (Areou)",
    "url": "www.pyrenees-refuges.com/fr/affiche.php?numenr=914",
    "description": "Cabane de berger fermée aux randonneurs même en hiver à noter un robinet d'eau à l'extérieur de la cabane et une remise à matériel sur la droite qui peut servir pour s abriter en cas d'orage.",
    "photoUrl": "https://raw.githubusercontent.com/matvdg/Rando/master/photos/cabanepastoraledarreau.jpeg",
    "alt": 1697,
    "category": "shelter"
  },
  {
    "lng": 1.1304864968713,
    "lat": 42.776897154066,
    "name": "Refuge forestier d'Arreau (ou Areou)",
    "url": "www.pyrenees-refuges.com/fr/affiche.php?numenr=915",
    "description": "Refuge de l'ONF fermée aux randonneurs et curieusement placee dans un site ou il n y à pas un arbre à plusieurs kilomètres à la ronde brva être transforme en gite ONF pour le reseau recouvrance toit arrache par klaus en janvier 2009.",
    "photoUrl": "https://raw.githubusercontent.com/matvdg/Rando/master/photos/refugearreau.jpeg",
    "alt": 1886,
    "category": "shelter"
  },
  {
    "lng": 1.24273744,
    "lat": 42.7411286,
    "name": "Cabane d'Arrech",
    "url": "www.pyrenees-refuges.com/fr/affiche.php?numenr=855",
    "description": "Cabane ouverte semble occupéepar un berger beaucoup d'affaires à l'intérieur abords et intérieur assez sale eau à proximité pas de bois attention descente galere et dangereuse sur ossese par cette cabane.",
    "photoUrl": "https://www.pyrenees-refuges.com/media/photo/855_1473616270.jpg",
    "alt": 1777,
    "category": "shelter"
  },
  {
    "lng": -0.20505,
    "lat": 42.89975,
    "name": "Cabane Arriousec",
    "url": "www.pyrenees-refuges.com/fr/affiche.php?numenr=417",
    "description": "belle cabane ouverte lors de mon passage en hivers 2014 une cheminée une table deux bancs une mezzanine avec 2x4 places pour dormir assez grande et propre avec un peu de bazarre forêt et ruisseau à proximité bon point de départ pour le grand barbat aout 2014 nous avions decide de profiter une nuit ou 2 de cette jolie cabane après avoir crapahute presque une heure nous arrivons enfin à la cabane et surprise l'endroit est investi à outrance avec cochons parques et cuves pour faire fromage le tout gere par une famille qui m apprend qu en fait ils passent tout l'été ici chaque annee trop cool pour les autres bien decus et degoutes par cet abus nous navions plus qu à trouver un coin paisible et non empeste par les divers excrements pour pouvoir profiter de la beaute de la nature alors avis aux amateurs cherchez une autre cabane ou emportez la tente.",
    "photoUrl": "https://www.pyrenees-refuges.com/media/photo/417_1391504062.jpg",
    "alt": 1400,
    "category": "shelter"
  },
  {
    "lng": -0.38027286529541,
    "lat": 42.780677041628,
    "name": "Arrigal",
    "url": "www.pyrenees-refuges.com/fr/affiche.php?numenr=1560",
    "description": "Il est utilisable mais pas du tout entretenu l'été il y a des vaches",
    "category": "shelter"
  },
  {
    "lng": 0.48618307,
    "lat": 42.7322496,
    "name": "Cabane d'Arrouge",
    "url": "www.pyrenees-refuges.com/fr/affiche.php?numenr=31",
    "description": "Cabane refaite et en très bon état général cheminée une table avec 2 bancs 2 matelas en bon état et 2 vieilles couvertures un placard pour y stocker des victuailles occupéepar le berger jusqu au 6 septembre mais de facon sporadique la plupart du temps inoccupee.",
    "photoUrl": "https://www.pyrenees-refuges.com/media/photo/31_1474274384.jpg",
    "alt": 2120,
    "category": "shelter"
  },
  {
    "lng": 0.0816666,
    "lat": 42.995,
    "name": "Cabane Arrodets",
    "url": "www.pyrenees-refuges.com/fr/affiche.php?numenr=435",
    "description": "Jolie vue de l'extérieur mais cabane en mauvais état et sale la toiture s effondrera bientot si rien n est fait présence d'une table et de deux matelas dans un état très moyens eux aussi bonnes sources 50m au dessus peut neanmoins encore servird'abri sommaire si besoin.",
    "photoUrl": "https://www.pyrenees-refuges.com/media/photo/435_1509298109.jpg",
    "alt": 1380,
    "category": "shelter"
  },
  {
    "lng": 1.34639897,
    "lat": 42.7360796,
    "name": "Cabane du Turon d'Ars",
    "url": "www.pyrenees-refuges.com/fr/affiche.php?numenr=569",
    "description": "Une nouvelle cabane a été construite en 2013 ouverte bon état propre 5 matelas un peu grands et il est difficile de dormir sur les trois couchages haut un poêle tabourets une table centrale video de la construction http www youtube com watch v b5dadominkg.",
    "photoUrl": "https://www.pyrenees-refuges.com/media/photo/569_1380991091.jpg",
    "alt": 1831,
    "category": "shelter"
  },
  {
    "lng": 0.94594999,
    "lat": 42.809755,
    "name": "Cabane d'Artignan",
    "url": "www.pyrenees-refuges.com/fr/affiche.php?numenr=875.",
    "photoUrl": "https://www.pyrenees-refuges.com/media/photo/artignan1.jpg",
    "alt": 2010,
    "category": "shelter"
  },
  {
    "lng": 0.3375,
    "lat": 42.9806,
    "name": "Cabane d'Artigueluz",
    "url": "www.pyrenees-refuges.com/fr/affiche.php?numenr=1050",
    "description": "Petite cabane en très bon état propre et ouvert du moins en hiver lors de mon passage table et chaises cheminée au rdc couchage à l'étage sur plancher avec de gros matelas mousse pour 3 personnes 2 en bas par terre si besoin seul bemol je n'ai pas vu d'eau.",
    "photoUrl": "https://www.pyrenees-refuges.com/media/photo/1050_1231095372.jpg",
    "alt": 1396,
    "category": "shelter"
  },
  {
    "lng": 1.50802373,
    "lat": 42.8176841,
    "name": "Cabane de Artats",
    "url": "www.pyrenees-refuges.com/fr/affiche.php?numenr=32",
    "description": "Sommaire mais propre pas de cheminée mais un poêle penser à ramasser du bois avant de sortir de la forêt attention cabane réservée par les pecheurs en juin et juillet donc ne comptez pas uniquement dessus par contre à côté de la cabane principale il y a aussi une cabanne sans couchages avec sol béton qui permet de dormir à 4 personnes.",
    "photoUrl": "https://www.pyrenees-refuges.com/media/photo/32_1230666609.jpg",
    "alt": 1695,
    "category": "shelter"
  },
  {
    "lng": 1.68288088,
    "lat": 42.7123158,
    "name": "Cabane Artaran",
    "url": "www.pyrenees-refuges.com/fr/affiche.php?numenr=610",
    "description": "Cabane renovee depuis octobre 2018 les randonneurs ont une pièce ouverte l'été seulement 15 juin au 15 septembre environ mesure prise par le village de verdun pour éviter les squats une autre pièce fermée est disponible avec accord de la mairie de verdun des videos d'evolution de la cabane sont disponibles sur youtube en cherchant jacob karhu racontant la renovation benevole par un etudiant source indiquee en descendant sur le barrage de riete qqes centaines de mètres assechee à cette période.",
    "photoUrl": "https://www.pyrenees-refuges.com/media/photo/610_1540234819.jpg",
    "alt": 1695,
    "category": "shelter"
  },
  {
    "lng": -0.4792,
    "lat": 42.9275,
    "name": "Cabane de Artigue de Sesques",
    "url": "www.pyrenees-refuges.com/fr/affiche.php?numenr=1156",
    "description": "Attention cabane detruite par une avalanche lors de l'hiver 2014 2015 en reconstruction été 2016 à la sortie du bois sur la droite ancienne description jolie cabane ouverte toute l'annee à ne pas confondre avec le cujala de sesques cabane de berger située un peu plus haut dans le même vallon mais réservée aux bergers et fermée agréable propre pas de matelas un bas flanc un étage rnnombreuses randonnees pic de sesques pour montagnards confirmes ou lac de sesques.",
    "photoUrl": "https://www.pyrenees-refuges.com/media/photo/1156_1474200784.jpg",
    "alt": 1413,
    "category": "shelter"
  },
  {
    "lng": 0.6974167,
    "lat": 42.87647969,
    "name": "Cabane Artiguessans",
    "url": "www.pyrenees-refuges.com/fr/affiche.php?numenr=493.",
    "photoUrl": "https://www.pyrenees-refuges.com/media/photo/493_1198134730.jpg",
    "alt": 990,
    "category": "shelter"
  },
  {
    "lng": 0.7536111,
    "lat": 42.886944,
    "name": "Cabane de l'Artigue (col d'Esponne)",
    "url": "www.pyrenees-refuges.com/fr/affiche.php?numenr=1043",
    "description": "Tres jolie cabane cheminée et grande table avec chaises et banc couchage à l'étage avec 1 matelas 3 mousses 1 pers fenêtre à l'étage possibilite de dormir par terre à 2 ou 3 au rdc eau à proximité toit en tole non isolee.",
    "photoUrl": "https://raw.githubusercontent.com/matvdg/Rando/master/photos/cabaneartigueesponne.jpeg",
    "alt": 1356,
    "category": "shelter"
  },
  {
    "lng": 0.285,
    "lat": 42.011944,
    "name": "Courtaou de Artigualeou",
    "url": "www.pyrenees-refuges.com/fr/affiche.php?numenr=1060",
    "description": "Grande cabane avec cheminée longue table banc 2 chaises et une serie de fauteuils de spectacle ou en état 1 étage avec escalier toit en tole non isole beaucoup de place pour dormir en haut et en bas pas de couchage murs tagges et cabane très sale en avril 2019 on à en partie nettoye très joli environnement ",
    "alt": 860,
    "category": "shelter"
  },
  {
    "lng": 2.442175,
    "lat": 42.392766,
    "name": "Abri pastoral Artigues de En Cases",
    "url": "www.pyrenees-refuges.com/fr/affiche.php?numenr=1480",
    "description": "Abri pastoral une partie fermé pour le berger et une partie ouverte en bonne etat.",
    "photoUrl": "https://www.pyrenees-refuges.com/media/photo/2000_1505078840.jpg",
    "alt": 1550,
    "category": "shelter"
  },
  {
    "lng": 0.18953069277672,
    "lat": 42.819620063662,
    "name": "Cabane d'Artigusse",
    "url": "www.pyrenees-refuges.com/fr/affiche.php?numenr=34",
    "description": "Table bancs.",
    "photoUrl": "https://www.pyrenees-refuges.com/media/photo/artigusse.jpg",
    "alt": 1650,
    "category": "shelter"
  },
  {
    "lng": 0.78559763745491,
    "lat": 42.889391613159,
    "name": "Cabane du col d'Artigascou",
    "url": "www.pyrenees-refuges.com/fr/affiche.php?numenr=1188",
    "description": "Cabane sous le col d'artigascou propre grande cheminée couchage à l'étage accessible par une échelle propre grille disponible.",
    "photoUrl": "https://www.pyrenees-refuges.com/media/photo/2001_1303463029.jpg",
    "category": "shelter"
  },
  {
    "lng": 0.64810737739167,
    "lat": 42.882237975246,
    "name": "Cabane de l'Artigue de Burgalays",
    "url": "www.pyrenees-refuges.com/fr/affiche.php?numenr=1753",
    "description": "Cabane spacieuse 2 pièces mais sale le 21 01 2022 située dans une vaste clairiere de la forêt de burat palaquere 1 échelle permet de monter à l'étage tables bancs grande cheminée grille.",
    "photoUrl": "https://www.pyrenees-refuges.com/media/photo/16782115278327.jpg",
    "alt": 1350,
    "category": "shelter"
  },
  {
    "lng": -0.335406,
    "lat": 42.874889,
    "name": "Cabane d'Artigue",
    "url": "www.pyrenees-refuges.com/fr/affiche.php?numenr=495",
    "description": "Petite cabane 2 3 places pas de cheminée juste un bas flanc sympathique tout de meme.",
    "photoUrl": "https://www.pyrenees-refuges.com/media/photo/495_1555545587.jpg",
    "alt": 1700,
    "category": "shelter"
  },
  {
    "lng": 0.83,
    "lat": 42.776667,
    "name": "Cabane des Artiguetes",
    "url": "www.pyrenees-refuges.com/fr/affiche.php?numenr=787",
    "description": "Cabane en bord de route un peu poussiereuse mais en bon état avec une partie couchage à l'étage le refuge qui est un peu plus haut après le pont est privé porte soudee accès fos bossost es bordes gt arros à gauche.",
    "photoUrl": "https://www.pyrenees-refuges.com/media/photo/artiguetes3.jpg",
    "alt": 1580,
    "category": "shelter"
  },
  {
    "lng": 0.97405,
    "lat": 42.858476,
    "name": "Cabane Artigou",
    "url": "www.pyrenees-refuges.com/fr/affiche.php?numenr=535",
    "description": "Petite cabane en bon état sol en terre bois table bancs pas vu de source beaucoup d'affaires berger.",
    "photoUrl": "https://raw.githubusercontent.com/matvdg/Rando/master/photos/cabaneartigou.jpeg",
    "alt": 1599,
    "category": "shelter"
  },
  {
    "lng": -0.016222,
    "lat": 42.9365848,
    "name": "Cabane d'Artigarés",
    "url": "www.pyrenees-refuges.com/fr/affiche.php?numenr=951",
    "description": "Pas de couchage un banc et une table prennent toute la place dans la cabane cabane en excellent état bien isolee bois à disposition ruisseau à 5mn des planches madriers et sacs de sel ont été disposes au fond de la cabane.",
    "photoUrl": "https://www.pyrenees-refuges.com/media/photo/1003_1211618799.jpg",
    "alt": 1530,
    "category": "shelter"
  },
  {
    "lng": 0.75911666,
    "lat": 42.546667,
    "name": "Cabane d'Artigalonga",
    "url": "www.pyrenees-refuges.com/fr/affiche.php?numenr=860",
    "description": "Pas de table ni bancs ni bat flanc frequentee par les chasseurs assez sale eau bois cheminée situé après le tunel de vielha piste au départ de senet.",
    "photoUrl": "https://www.pyrenees-refuges.com/media/photo/artigalonga.jpg",
    "alt": 1715,
    "category": "shelter"
  },
  {
    "lng": 0.7061111,
    "lat": 42.679722,
    "name": "Refuge Artiga de Lin",
    "url": "www.pyrenees-refuges.com/fr/affiche.php?numenr=774",
    "description": "Refuge à côté du parking surement très populaire en été 2 parties avec cheminées dont une de 3 places.",
    "photoUrl": "https://www.pyrenees-refuges.com/media/photo/artiga_lin2.jpg",
    "alt": 1465,
    "category": "shelter"
  },
  {
    "lng": 1.12018104,
    "lat": 42.7976911,
    "name": "Cabane de l'Artigues",
    "url": "www.pyrenees-refuges.com/fr/affiche.php?numenr=921",
    "description": "L abri d'artigues se trouve 50m au sud de la cabane ONF fermée dommage qu'il soit envahi par la vegetation et menace ruine car c est le seul endroit ou s abriter en cas d'intemperie table d'angle en pierre rare brlt brgt lt brgt brcabane forestière fermée aux randonneurs deux autres cabanes dans les environs la viellle cabane ruinee 50m au sud avec un coin aménagée ou on peut s abriter voir y dormir et une cabane sans doute privée non visitée un peu en aval et de l'autre cote du torrent brlt brgt.",
    "photoUrl": "https://www.pyrenees-refuges.com/media/photo/921_1219649957.jpg",
    "alt": 1053,
    "category": "shelter"
  },
  {
    "lng": 0.77451536808396,
    "lat": 42.849556529592,
    "name": "Cabane du Courrau d'Artigue",
    "url": "www.pyrenees-refuges.com/fr/affiche.php?numenr=33",
    "description": "Cabane ouverte propre 4 lits metal superposés mezzanine 3 places table bancs ruisseau bois de hetre brdeconseillee en période de chasse brpas très loin de la route du val d'aran 1 h après melles premier chemin à gauche après ancien poste de douanes en dessous de la cabane de salontere.",
    "photoUrl": "https://raw.githubusercontent.com/matvdg/Rando/master/photos/cabanecourraudartigue.jpeg",
    "alt": 1170,
    "category": "shelter"
  },
  {
    "lng": 1.01625884,
    "lat": 42.8296472,
    "name": "Cabane de l'Artigue",
    "url": "www.pyrenees-refuges.com/fr/affiche.php?numenr=757",
    "description": "Petite cabane en pierre située sur le GR10 une heure avant d'arriver au pla de la lau refaite à neuf et assez rustique pas de table ni de banc un grand bat flanc pour 4 occupé  tout l'espace bois à 5mn abreuvoir à proximité avec eau qui coule doucement la cheminée est un simple foyer avec un trou plus haut dans le mur pour evacuer la fumee peu servir de dépannage en cas de besoin.",
    "photoUrl": "https://raw.githubusercontent.com/matvdg/Rando/master/photos/cabanedelartigue.jpeg",
    "alt": 1420,
    "category": "shelter"
  },
  {
    "lng": 1.3862943297799,
    "lat": 42.71218201254,
    "name": "Cabane Artigue",
    "url": "www.pyrenees-refuges.com/fr/affiche.php?numenr=494",
    "description": "Cabane agréable 4 couchages sur un bat flanc qui sert aussi de table 2 bancs source à côté bois à proximité la cheminée tire bien.",
    "photoUrl": "https://raw.githubusercontent.com/matvdg/Rando/master/photos/cabaneartigue.jpeg",
    "alt": 1533,
    "category": "shelter"
  },
  {
    "lng": 1.93182771,
    "lat": 42.71831319,
    "name": "Cabane d'Ascou",
    "url": "www.pyrenees-refuges.com/fr/affiche.php?numenr=35.",
    "photoUrl": "https://www.pyrenees-refuges.com/media/photo/ascou.jpg",
    "alt": 1323,
    "category": "shelter"
  },
  {
    "lng": -0.054722,
    "lat": 42.768889,
    "name": "Cabane d'Aspé",
    "url": "www.pyrenees-refuges.com/fr/affiche.php?numenr=457",
    "description": "Cabane detruite durant l'hiver 2014 2015 reconstruction.",
    "photoUrl": "https://www.pyrenees-refuges.com/media/photo/457_1431517687.jpg",
    "alt": 1848,
    "category": "shelter"
  },
  {
    "lng": -0.112375,
    "lat": 42.628728,
    "name": "L'Atalaya",
    "url": "www.pyrenees-refuges.com/fr/affiche.php?numenr=809",
    "description": "Refuge restaurant de torla ",
    "alt": 1033,
    "category": "refuge"
  },
  {
    "lng": -1.074724,
    "lat": 42.041534,
    "name": "Refuge non gardé Aterbea",
    "url": "www.pyrenees-refuges.com/fr/affiche.php?numenr=1138",
    "description": "Situé au bord de la route rd 18 100 m au sud du carrefour avec la route rd 301 brbas flanc d'une dizaine de personnes table et bancs brn y etant passe qu en journee et n y ayant pas sejourne je ne peux donner d'autres renseignements.",
    "photoUrl": "https://www.pyrenees-refuges.com/media/photo/1138_1267688564.jpg",
    "alt": 990,
    "category": "shelter"
  },
  {
    "lng": -0.585833,
    "lat": 42.823611,
    "name": "Cabane de Atsout",
    "url": "www.pyrenees-refuges.com/fr/affiche.php?numenr=1003",
    "description": "Cabane au dessus de la cabane de grosse et comme celle ci elle est desormais fermée du moins lors de notre passage porte en fer et verrou nous avons du redescendre à la cabanne de caillabere qui est bien ouverte.",
    "photoUrl": "https://www.pyrenees-refuges.com/media/photo/1003_1447626814.jpg",
    "category": "shelter"
  },
  {
    "lng": 0.14355469,
    "lat": 42.8402607,
    "name": "Refuge du Lac d'Aubert",
    "url": "www.pyrenees-refuges.com/fr/affiche.php?numenr=36",
    "description": "Table bancs et couverture c est un refuge d'hiver il est fermé en été proximite parking oblige robinet sur le cote accessible l'été.",
    "photoUrl": "https://www.pyrenees-refuges.com/media/photo/36_1230745601.jpg",
    "alt": 2160,
    "category": "shelter"
  },
  {
    "lng": 0.7319972,
    "lat": 42.682614,
    "name": "Cabane d'Auba",
    "url": "www.pyrenees-refuges.com/fr/affiche.php?numenr=1018",
    "description": "Située dans le val d'aran vallon de artiga de linbrmenace de tomber en ruine",
    "category": "shelter"
  },
  {
    "lng": 0.692678,
    "lat": 42.697367,
    "name": "Cabana dera montanha d'Aubert",
    "url": "www.pyrenees-refuges.com/fr/affiche.php?numenr=1575",
    "description": "Cabane qui semble ouverte à confirmer par une visite.",
    "photoUrl": "https://www.pyrenees-refuges.com/media/photo/2004_1547058779.jpg",
    "alt": 1718,
    "category": "shelter"
  },
  {
    "lng": 0.82755,
    "lat": 42.83917,
    "name": "Cabane de Aueran",
    "url": "www.pyrenees-refuges.com/fr/affiche.php?numenr=1041",
    "description": "Située à l'ouest du col d'aueran juste au dessus de la forêt réservée au berger en été mais hors saison cabane ouverte située 300m à l'ouest de l'ancienne cabane aujourd hui en ruine la cheminée tire très mal.",
    "photoUrl": "https://www.pyrenees-refuges.com/media/photo/20221112_434647.jpg",
    "alt": 1616,
    "category": "shelter"
  },
  {
    "lng": 0.804444,
    "lat": 42.85138899,
    "name": "Cabane Melloux",
    "url": "www.pyrenees-refuges.com/fr/affiche.php?numenr=512",
    "description": "Cabane en bon état ouverte bois capacite de couchage environ 6 personnes été comme hiver.",
    "photoUrl": "https://www.pyrenees-refuges.com/media/photo/20221112_268034.jpg",
    "alt": 1410,
    "category": "shelter"
  },
  {
    "lng": -0.4656202,
    "lat": 42.879876,
    "name": "Cabane d'Aule",
    "url": "www.pyrenees-refuges.com/fr/affiche.php?numenr=38",
    "description": "Table bancs occupé  l'été par un berger.",
    "photoUrl": "https://www.pyrenees-refuges.com/media/photo/38_1292446793.jpg",
    "alt": 1711,
    "category": "shelter"
  },